{"type": "FeatureCollection", "features": [{"type": "Feature", "properties": {"operateur": "Free", "departement": null, "code_postal": null, "code_insee": "01120", "commune": "BOISSE", "2Gvoix": "NE", "3Gvoix": "HS", "4Gvoix": null, "3Gdata": "HS", "4Gdata": "HS", "5Gdata": "HS", "voix": "HS", "data": "HS", "propre": null, "detail": null, "debut_voix": NaN, "fin_voix": NaN, "debut_data": NaN, "fin_data": NaN, "debut": "2025-07-22 07:32:23", "fin": "2025-07-29"}, "geometry": {"type": "Point", "coordinates": [5.058024, 45.84215]}}, {"type": "Feature", "properties": {"operateur": "Free", "departement": null, "code_postal": null, "code_insee": "04400", "commune": "UVERNET-FOURS", "2Gvoix": "NE", "3Gvoix": "HS", "4Gvoix": null, "3Gdata": "HS", "4Gdata": "HS", "5Gdata": "NE", "voix": "HS", "data": "HS", "propre": null, "detail": null, "debut_voix": NaN, "fin_voix": NaN, "debut_data": NaN, "fin_data": NaN, "debut": "2025-07-22 20:17:33", "fin": "2025-07-29"}, "geometry": {"type": "Point", "coordinates": [6.745818179076, 44.313843772686]}}, {"type": "Feature", "properties": {"operateur": "Free", "departement": null, "code_postal": null, "code_insee": "05200", "commune": "ORRES", "2Gvoix": "NE", "3Gvoix": "HS", "4Gvoix": null, "3Gdata": "HS", "4Gdata": "HS", "5Gdata": "NE", "voix": "HS", "data": "HS", "propre": null, "detail": null, "debut_voix": NaN, "fin_voix": NaN, "debut_data": NaN, "fin_data": NaN, "debut": "2025-07-21 05:51:30", "fin": "2025-07-28"}, "geometry": {"type": "Point", "coordinates": [6.57954866, 44.46669959]}}, {"type": "Feature", "properties": {"operateur": "Free", "departement": null, "code_postal": null, "code_insee": "05320", "commune": "GRAVE", "2Gvoix": "NE", "3Gvoix": "HS", "4Gvoix": null, "3Gdata": "HS", "4Gdata": "HS", "5Gdata": "NE", "voix": "HS", "data": "HS", "propre": null, "detail": null, "debut_voix": NaN, "fin_voix": NaN, "debut_data": NaN, "fin_data": NaN, "debut": "2025-02-10 23:41:34", "fin": ""}, "geometry": {"type": "Point", "coordinates": [6.289931, 45.026249]}}, {"type": "Feature", "properties": {"operateur": "Free", "departement": null, "code_postal": null, "code_insee": "05800", "commune": "CHAPELLE-EN-VALGAUDEMAR", "2Gvoix": "NE", "3Gvoix": "HS", "4Gvoix": null, "3Gdata": "HS", "4Gdata": "HS", "5Gdata": "NE", "voix": "HS", "data": "HS", "propre": null, "detail": null, "debut_voix": NaN, "fin_voix": NaN, "debut_data": NaN, "fin_data": NaN, "debut": "2025-07-21 14:00:14", "fin": "2025-07-28"}, "geometry": {"type": "Point", "coordinates": [6.281453, 44.840912]}}, {"type": "Feature", "properties": {"operateur": "Free", "departement": null, "code_postal": null, "code_insee": "06300", "commune": "NICE", "2Gvoix": "NE", "3Gvoix": "HS", "4Gvoix": null, "3Gdata": "HS", "4Gdata": "HS", "5Gdata": "HS", "voix": "HS", "data": "HS", "propre": null, "detail": null, "debut_voix": NaN, "fin_voix": NaN, "debut_data": NaN, "fin_data": NaN, "debut": "2025-07-22 23:11:05", "fin": "2025-07-29"}, "geometry": {"type": "Point", "coordinates": [7.307974, 43.738239]}}, {"type": "Feature", "properties": {"operateur": "Free", "departement": null, "code_postal": null, "code_insee": "06470", "commune": "VILLENEUVE-D'ENTRAUNES", "2Gvoix": "NE", "3Gvoix": "HS", "4Gvoix": null, "3Gdata": "HS", "4Gdata": "HS", "5Gdata": "NE", "voix": "HS", "data": "HS", "propre": null, "detail": null, "debut_voix": NaN, "fin_voix": NaN, "debut_data": NaN, "fin_data": NaN, "debut": "2025-07-22 08:09:58", "fin": "2025-07-29"}, "geometry": {"type": "Point", "coordinates": [6.775807956003, 44.10989747954]}}, {"type": "Feature", "properties": {"operateur": "Free", "departement": null, "code_postal": null, "code_insee": "06600", "commune": "ANTIBES", "2Gvoix": "NE", "3Gvoix": "HS", "4Gvoix": null, "3Gdata": "HS", "4Gdata": "OK", "5Gdata": "NE", "voix": "HS", "data": "OK", "propre": null, "detail": null, "debut_voix": NaN, "fin_voix": NaN, "debut_data": NaN, "fin_data": NaN, "debut": "2025-07-22 10:21:33", "fin": "2025-07-29"}, "geometry": {"type": "Point", "coordinates": [7.11673, 43.57453]}}, {"type": "Feature", "properties": {"operateur": "Free", "departement": null, "code_postal": null, "code_insee": "06610", "commune": "LA GAUDE", "2Gvoix": "NE", "3Gvoix": "HS", "4Gvoix": null, "3Gdata": "HS", "4Gdata": "HS", "5Gdata": "HS", "voix": "HS", "data": "HS", "propre": null, "detail": null, "debut_voix": NaN, "fin_voix": NaN, "debut_data": NaN, "fin_data": NaN, "debut": "2025-07-23 00:31:27", "fin": "2025-07-30"}, "geometry": {"type": "Point", "coordinates": [7.16229, 43.73054]}}, {"type": "Feature", "properties": {"operateur": "Free", "departement": null, "code_postal": null, "code_insee": "11000", "commune": "CARCASSONNE", "2Gvoix": "NE", "3Gvoix": "HS", "4Gvoix": null, "3Gdata": "HS", "4Gdata": "HS", "5Gdata": "NE", "voix": "HS", "data": "HS", "propre": null, "detail": null, "debut_voix": NaN, "fin_voix": NaN, "debut_data": NaN, "fin_data": NaN, "debut": "2025-07-21 08:10:32", "fin": "2025-07-28"}, "geometry": {"type": "Point", "coordinates": [2.37981238, 43.2076261]}}, {"type": "Feature", "properties": {"operateur": "Free", "departement": null, "code_postal": null, "code_insee": "11100", "commune": "NARBONNE ", "2Gvoix": "NE", "3Gvoix": "HS", "4Gvoix": null, "3Gdata": "HS", "4Gdata": "HS", "5Gdata": "HS", "voix": "HS", "data": "HS", "propre": null, "detail": null, "debut_voix": NaN, "fin_voix": NaN, "debut_data": NaN, "fin_data": NaN, "debut": "2025-06-25 14:30:32", "fin": "2025-07-25"}, "geometry": {"type": "Point", "coordinates": [3.00638524, 43.18673565]}}, {"type": "Feature", "properties": {"operateur": "Free", "departement": null, "code_postal": null, "code_insee": "11110", "commune": "ARMISSAN", "2Gvoix": "NE", "3Gvoix": "HS", "4Gvoix": null, "3Gdata": "HS", "4Gdata": "HS", "5Gdata": "HS", "voix": "HS", "data": "HS", "propre": null, "detail": null, "debut_voix": NaN, "fin_voix": NaN, "debut_data": NaN, "fin_data": NaN, "debut": "2025-05-22 20:40:37", "fin": ""}, "geometry": {"type": "Point", "coordinates": [3.07288175, 43.19191653]}}, {"type": "Feature", "properties": {"operateur": "Free", "departement": null, "code_postal": null, "code_insee": "11370", "commune": "LEUCATE", "2Gvoix": "NE", "3Gvoix": "HS", "4Gvoix": null, "3Gdata": "HS", "4Gdata": "HS", "5Gdata": "HS", "voix": "HS", "data": "HS", "propre": null, "detail": null, "debut_voix": NaN, "fin_voix": NaN, "debut_data": NaN, "fin_data": NaN, "debut": "2025-07-08 16:00:35", "fin": "2025-08-08"}, "geometry": {"type": "Point", "coordinates": [3.02724498, 42.909223]}}, {"type": "Feature", "properties": {"operateur": "Free", "departement": null, "code_postal": null, "code_insee": "12250", "commune": "ROQUEFORT-SUR-SOULZON", "2Gvoix": "NE", "3Gvoix": "HS", "4Gvoix": null, "3Gdata": "HS", "4Gdata": "HS", "5Gdata": "HS", "voix": "HS", "data": "HS", "propre": null, "detail": null, "debut_voix": NaN, "fin_voix": NaN, "debut_data": NaN, "fin_data": NaN, "debut": "2025-07-22 21:50:34", "fin": "2025-07-29"}, "geometry": {"type": "Point", "coordinates": [2.98389154, 43.97555861]}}, {"type": "Feature", "properties": {"operateur": "Free", "departement": null, "code_postal": null, "code_insee": "12470", "commune": "SAINT-CHELY-D'AUBRAC", "2Gvoix": "NE", "3Gvoix": "HS", "4Gvoix": null, "3Gdata": "HS", "4Gdata": "HS", "5Gdata": "NE", "voix": "HS", "data": "HS", "propre": null, "detail": null, "debut_voix": NaN, "fin_voix": NaN, "debut_data": NaN, "fin_data": NaN, "debut": "2024-10-07 02:50:24", "fin": ""}, "geometry": {"type": "Point", "coordinates": [2.985452, 44.631255]}}, {"type": "Feature", "properties": {"operateur": "Free", "departement": null, "code_postal": null, "code_insee": "13007", "commune": "Marseille", "2Gvoix": "NE", "3Gvoix": "HS", "4Gvoix": null, "3Gdata": "HS", "4Gdata": "HS", "5Gdata": "NE", "voix": "HS", "data": "HS", "propre": null, "detail": null, "debut_voix": NaN, "fin_voix": NaN, "debut_data": NaN, "fin_data": NaN, "debut": "2025-06-17 15:23:18", "fin": ""}, "geometry": {"type": "Point", "coordinates": [5.36417, 43.293978]}}, {"type": "Feature", "properties": {"operateur": "Free", "departement": null, "code_postal": null, "code_insee": "13016", "commune": "MARSEILLE 16", "2Gvoix": "NE", "3Gvoix": "HS", "4Gvoix": null, "3Gdata": "HS", "4Gdata": "HS", "5Gdata": "NE", "voix": "HS", "data": "HS", "propre": null, "detail": null, "debut_voix": NaN, "fin_voix": NaN, "debut_data": NaN, "fin_data": NaN, "debut": "2025-07-08 14:23:02", "fin": "2025-08-08"}, "geometry": {"type": "Point", "coordinates": [5.33217, 43.36601]}}, {"type": "Feature", "properties": {"operateur": "Free", "departement": null, "code_postal": null, "code_insee": "13080", "commune": "AIX-EN-PROVENCE", "2Gvoix": "NE", "3Gvoix": "HS", "4Gvoix": null, "3Gdata": "HS", "4Gdata": "HS", "5Gdata": "HS", "voix": "HS", "data": "HS", "propre": null, "detail": null, "debut_voix": NaN, "fin_voix": NaN, "debut_data": NaN, "fin_data": NaN, "debut": "2025-07-22 22:00:22", "fin": "2025-07-29"}, "geometry": {"type": "Point", "coordinates": [5.3862349, 43.4809934]}}, {"type": "Feature", "properties": {"operateur": "Free", "departement": null, "code_postal": null, "code_insee": "13120", "commune": "GARDANNE", "2Gvoix": "NE", "3Gvoix": "HS", "4Gvoix": null, "3Gdata": "HS", "4Gdata": "HS", "5Gdata": "HS", "voix": "HS", "data": "HS", "propre": null, "detail": null, "debut_voix": NaN, "fin_voix": NaN, "debut_data": NaN, "fin_data": NaN, "debut": "2025-07-21 12:20:12", "fin": "2025-07-28"}, "geometry": {"type": "Point", "coordinates": [5.47387, 43.45738]}}, {"type": "Feature", "properties": {"operateur": "Free", "departement": null, "code_postal": null, "code_insee": "13122", "commune": "VENTABREN", "2Gvoix": "NE", "3Gvoix": "HS", "4Gvoix": null, "3Gdata": "HS", "4Gdata": "HS", "5Gdata": "HS", "voix": "HS", "data": "HS", "propre": null, "detail": null, "debut_voix": NaN, "fin_voix": NaN, "debut_data": NaN, "fin_data": NaN, "debut": "2025-07-22 22:03:12", "fin": "2025-07-29"}, "geometry": {"type": "Point", "coordinates": [5.31833355, 43.55388973]}}, {"type": "Feature", "properties": {"operateur": "Free", "departement": null, "code_postal": null, "code_insee": "13127", "commune": "VITROLLES", "2Gvoix": "NE", "3Gvoix": "HS", "4Gvoix": null, "3Gdata": "HS", "4Gdata": "HS", "5Gdata": "HS", "voix": "HS", "data": "HS", "propre": null, "detail": null, "debut_voix": NaN, "fin_voix": NaN, "debut_data": NaN, "fin_data": NaN, "debut": "2025-07-22 22:03:09", "fin": "2025-07-29"}, "geometry": {"type": "Point", "coordinates": [5.23470593, 43.47352869]}}, {"type": "Feature", "properties": {"operateur": "Free", "departement": null, "code_postal": null, "code_insee": "13130", "commune": "BERRE-L'ETANG", "2Gvoix": "NE", "3Gvoix": "HS", "4Gvoix": null, "3Gdata": "HS", "4Gdata": "HS", "5Gdata": "HS", "voix": "HS", "data": "HS", "propre": null, "detail": null, "debut_voix": NaN, "fin_voix": NaN, "debut_data": NaN, "fin_data": NaN, "debut": "2025-07-22 22:00:24", "fin": "2025-07-29"}, "geometry": {"type": "Point", "coordinates": [5.168992, 43.490338]}}, {"type": "Feature", "properties": {"operateur": "Free", "departement": null, "code_postal": null, "code_insee": "13130", "commune": "BERRE-L'ETANG", "2Gvoix": "NE", "3Gvoix": "HS", "4Gvoix": null, "3Gdata": "HS", "4Gdata": "HS", "5Gdata": "HS", "voix": "HS", "data": "HS", "propre": null, "detail": null, "debut_voix": NaN, "fin_voix": NaN, "debut_data": NaN, "fin_data": NaN, "debut": "2025-07-22 22:00:25", "fin": "2025-07-29"}, "geometry": {"type": "Point", "coordinates": [5.17583476, 43.50500087]}}, {"type": "Feature", "properties": {"operateur": "Free", "departement": null, "code_postal": null, "code_insee": "13130", "commune": "BERRE L'ETANG", "2Gvoix": "NE", "3Gvoix": "HS", "4Gvoix": null, "3Gdata": "HS", "4Gdata": "HS", "5Gdata": "HS", "voix": "HS", "data": "HS", "propre": null, "detail": null, "debut_voix": NaN, "fin_voix": NaN, "debut_data": NaN, "fin_data": NaN, "debut": "2025-07-22 22:00:18", "fin": "2025-07-29"}, "geometry": {"type": "Point", "coordinates": [5.173746, 43.480577]}}, {"type": "Feature", "properties": {"operateur": "Free", "departement": null, "code_postal": null, "code_insee": "13130", "commune": "BERRE L'ETANG ", "2Gvoix": "NE", "3Gvoix": "HS", "4Gvoix": null, "3Gdata": "HS", "4Gdata": "HS", "5Gdata": "HS", "voix": "HS", "data": "HS", "propre": null, "detail": null, "debut_voix": NaN, "fin_voix": NaN, "debut_data": NaN, "fin_data": NaN, "debut": "2025-07-22 22:00:18", "fin": "2025-07-29"}, "geometry": {"type": "Point", "coordinates": [5.199659, 43.520038]}}, {"type": "Feature", "properties": {"operateur": "Free", "departement": null, "code_postal": null, "code_insee": "13130", "commune": "BERRE L'ETANG", "2Gvoix": "NE", "3Gvoix": "HS", "4Gvoix": null, "3Gdata": "HS", "4Gdata": "HS", "5Gdata": "NE", "voix": "HS", "data": "HS", "propre": null, "detail": null, "debut_voix": NaN, "fin_voix": NaN, "debut_data": NaN, "fin_data": NaN, "debut": "2025-07-22 22:00:18", "fin": "2025-07-29"}, "geometry": {"type": "Point", "coordinates": [5.166855, 43.485919]}}, {"type": "Feature", "properties": {"operateur": "Free", "departement": null, "code_postal": null, "code_insee": "13130", "commune": "BERRE L'ETANG", "2Gvoix": "NE", "3Gvoix": "HS", "4Gvoix": null, "3Gdata": "HS", "4Gdata": "HS", "5Gdata": "HS", "voix": "HS", "data": "HS", "propre": null, "detail": null, "debut_voix": NaN, "fin_voix": NaN, "debut_data": NaN, "fin_data": NaN, "debut": "2025-07-22 22:00:18", "fin": "2025-07-29"}, "geometry": {"type": "Point", "coordinates": [5.179844, 43.483756]}}, {"type": "Feature", "properties": {"operateur": "Free", "departement": null, "code_postal": null, "code_insee": "13150", "commune": "BOULBON", "2Gvoix": "NE", "3Gvoix": "HS", "4Gvoix": null, "3Gdata": "HS", "4Gdata": "HS", "5Gdata": "HS", "voix": "HS", "data": "HS", "propre": null, "detail": null, "debut_voix": NaN, "fin_voix": NaN, "debut_data": NaN, "fin_data": NaN, "debut": "2025-07-21 02:30:07", "fin": "2025-07-28"}, "geometry": {"type": "Point", "coordinates": [4.668934, 43.868913]}}, {"type": "Feature", "properties": {"operateur": "Free", "departement": null, "code_postal": null, "code_insee": "13170", "commune": "LES PENNES MIRABEAU", "2Gvoix": "NE", "3Gvoix": "HS", "4Gvoix": null, "3Gdata": "HS", "4Gdata": "HS", "5Gdata": "HS", "voix": "HS", "data": "HS", "propre": null, "detail": null, "debut_voix": NaN, "fin_voix": NaN, "debut_data": NaN, "fin_data": NaN, "debut": "2025-07-08 14:20:14", "fin": "2025-08-08"}, "geometry": {"type": "Point", "coordinates": [5.323745, 43.3693365]}}, {"type": "Feature", "properties": {"operateur": "Free", "departement": null, "code_postal": null, "code_insee": "13340", "commune": "ROGNAC", "2Gvoix": "NE", "3Gvoix": "HS", "4Gvoix": null, "3Gdata": "HS", "4Gdata": "HS", "5Gdata": "HS", "voix": "HS", "data": "HS", "propre": null, "detail": null, "debut_voix": NaN, "fin_voix": NaN, "debut_data": NaN, "fin_data": NaN, "debut": "2025-07-22 23:30:11", "fin": "2025-07-29"}, "geometry": {"type": "Point", "coordinates": [5.2444444444, 43.4902777778]}}, {"type": "Feature", "properties": {"operateur": "Free", "departement": null, "code_postal": null, "code_insee": "13340", "commune": "ROGNAC", "2Gvoix": "NE", "3Gvoix": "HS", "4Gvoix": null, "3Gdata": "HS", "4Gdata": "HS", "5Gdata": "NE", "voix": "HS", "data": "HS", "propre": null, "detail": null, "debut_voix": NaN, "fin_voix": NaN, "debut_data": NaN, "fin_data": NaN, "debut": "2025-07-22 22:00:13", "fin": "2025-07-29"}, "geometry": {"type": "Point", "coordinates": [5.223331, 43.485402]}}, {"type": "Feature", "properties": {"operateur": "Free", "departement": null, "code_postal": null, "code_insee": "13340", "commune": "ROGNAC", "2Gvoix": "NE", "3Gvoix": "HS", "4Gvoix": null, "3Gdata": "HS", "4Gdata": "HS", "5Gdata": "HS", "voix": "HS", "data": "HS", "propre": null, "detail": null, "debut_voix": NaN, "fin_voix": NaN, "debut_data": NaN, "fin_data": NaN, "debut": "2025-07-22 23:30:11", "fin": "2025-07-29"}, "geometry": {"type": "Point", "coordinates": [5.208105, 43.506841]}}, {"type": "Feature", "properties": {"operateur": "Free", "departement": null, "code_postal": null, "code_insee": "13480", "commune": "CABRIES", "2Gvoix": "NE", "3Gvoix": "HS", "4Gvoix": null, "3Gdata": "HS", "4Gdata": "HS", "5Gdata": "HS", "voix": "HS", "data": "HS", "propre": null, "detail": null, "debut_voix": NaN, "fin_voix": NaN, "debut_data": NaN, "fin_data": NaN, "debut": "2025-05-20 09:20:16", "fin": ""}, "geometry": {"type": "Point", "coordinates": [5.383131, 43.459024]}}, {"type": "Feature", "properties": {"operateur": "Free", "departement": null, "code_postal": null, "code_insee": "13880", "commune": "VELAUX", "2Gvoix": "NE", "3Gvoix": "HS", "4Gvoix": null, "3Gdata": "HS", "4Gdata": "HS", "5Gdata": "HS", "voix": "HS", "data": "HS", "propre": null, "detail": null, "debut_voix": NaN, "fin_voix": NaN, "debut_data": NaN, "fin_data": NaN, "debut": "2025-07-22 22:03:07", "fin": "2025-07-29"}, "geometry": {"type": "Point", "coordinates": [5.251555, 43.524819]}}, {"type": "Feature", "properties": {"operateur": "Free", "departement": null, "code_postal": null, "code_insee": "13880", "commune": "VELAUX", "2Gvoix": "NE", "3Gvoix": "HS", "4Gvoix": null, "3Gdata": "HS", "4Gdata": "HS", "5Gdata": "HS", "voix": "HS", "data": "HS", "propre": null, "detail": null, "debut_voix": NaN, "fin_voix": NaN, "debut_data": NaN, "fin_data": NaN, "debut": "2025-07-22 22:03:07", "fin": "2025-07-29"}, "geometry": {"type": "Point", "coordinates": [5.235272, 43.540276]}}, {"type": "Feature", "properties": {"operateur": "Free", "departement": null, "code_postal": null, "code_insee": "13880", "commune": "VELAUX", "2Gvoix": "NE", "3Gvoix": "HS", "4Gvoix": null, "3Gdata": "HS", "4Gdata": "HS", "5Gdata": "NE", "voix": "HS", "data": "HS", "propre": null, "detail": null, "debut_voix": NaN, "fin_voix": NaN, "debut_data": NaN, "fin_data": NaN, "debut": "2025-07-22 22:03:12", "fin": "2025-07-29"}, "geometry": {"type": "Point", "coordinates": [5.218669, 43.529226]}}, {"type": "Feature", "properties": {"operateur": "Free", "departement": null, "code_postal": null, "code_insee": "13880", "commune": "Velaux", "2Gvoix": "NE", "3Gvoix": "HS", "4Gvoix": null, "3Gdata": "HS", "4Gdata": "HS", "5Gdata": "HS", "voix": "HS", "data": "HS", "propre": null, "detail": null, "debut_voix": NaN, "fin_voix": NaN, "debut_data": NaN, "fin_data": NaN, "debut": "2025-07-22 22:03:12", "fin": "2025-07-29"}, "geometry": {"type": "Point", "coordinates": [5.23552224, 43.51376591]}}, {"type": "Feature", "properties": {"operateur": "Free", "departement": null, "code_postal": null, "code_insee": "14000", "commune": "CAEN", "2Gvoix": "NE", "3Gvoix": "HS", "4Gvoix": null, "3Gdata": "HS", "4Gdata": "HS", "5Gdata": "HS", "voix": "HS", "data": "HS", "propre": null, "detail": null, "debut_voix": NaN, "fin_voix": NaN, "debut_data": NaN, "fin_data": NaN, "debut": "2024-08-10 05:52:59", "fin": ""}, "geometry": {"type": "Point", "coordinates": [-0.377165, 49.193682]}}, {"type": "Feature", "properties": {"operateur": "Free", "departement": null, "code_postal": null, "code_insee": "16290", "commune": "ASNIERES-SUR-NOUERE", "2Gvoix": "NE", "3Gvoix": "HS", "4Gvoix": null, "3Gdata": "HS", "4Gdata": "HS", "5Gdata": "HS", "voix": "HS", "data": "HS", "propre": null, "detail": null, "debut_voix": NaN, "fin_voix": NaN, "debut_data": NaN, "fin_data": NaN, "debut": "2025-07-21 01:22:50", "fin": "2025-07-28"}, "geometry": {"type": "Point", "coordinates": [0.038358, 45.714927]}}, {"type": "Feature", "properties": {"operateur": "Free", "departement": null, "code_postal": null, "code_insee": "16290", "commune": "ASNIERES-SUR-NOUERE", "2Gvoix": "NE", "3Gvoix": "HS", "4Gvoix": null, "3Gdata": "HS", "4Gdata": "HS", "5Gdata": "NE", "voix": "HS", "data": "HS", "propre": null, "detail": null, "debut_voix": NaN, "fin_voix": NaN, "debut_data": NaN, "fin_data": NaN, "debut": "2025-07-21 01:22:51", "fin": "2025-07-28"}, "geometry": {"type": "Point", "coordinates": [0.062611111, 45.72743333]}}, {"type": "Feature", "properties": {"operateur": "Free", "departement": null, "code_postal": null, "code_insee": "16290", "commune": "DOUZAT", "2Gvoix": "NE", "3Gvoix": "HS", "4Gvoix": null, "3Gdata": "HS", "4Gdata": "HS", "5Gdata": "HS", "voix": "HS", "data": "HS", "propre": null, "detail": null, "debut_voix": NaN, "fin_voix": NaN, "debut_data": NaN, "fin_data": NaN, "debut": "2025-07-21 01:22:55", "fin": "2025-07-28"}, "geometry": {"type": "Point", "coordinates": [-0.001261, 45.708182]}}, {"type": "Feature", "properties": {"operateur": "Free", "departement": null, "code_postal": null, "code_insee": "16500", "commune": "LESSAC", "2Gvoix": "NE", "3Gvoix": "HS", "4Gvoix": null, "3Gdata": "HS", "4Gdata": "HS", "5Gdata": "HS", "voix": "HS", "data": "HS", "propre": null, "detail": null, "debut_voix": NaN, "fin_voix": NaN, "debut_data": NaN, "fin_data": NaN, "debut": "2025-07-13 20:22:41", "fin": "2025-08-13"}, "geometry": {"type": "Point", "coordinates": [0.661081, 46.063839]}}, {"type": "Feature", "properties": {"operateur": "Free", "departement": null, "code_postal": null, "code_insee": "16570", "commune": "SAINT-GENIS-D'HIERSAC", "2Gvoix": "NE", "3Gvoix": "HS", "4Gvoix": null, "3Gdata": "HS", "4Gdata": "HS", "5Gdata": "NE", "voix": "HS", "data": "HS", "propre": null, "detail": null, "debut_voix": NaN, "fin_voix": NaN, "debut_data": NaN, "fin_data": NaN, "debut": "2025-07-21 01:22:47", "fin": "2025-07-28"}, "geometry": {"type": "Point", "coordinates": [0.037213, 45.750755]}}, {"type": "Feature", "properties": {"operateur": "Free", "departement": null, "code_postal": null, "code_insee": "17000", "commune": "LA ROCHELLE", "2Gvoix": "NE", "3Gvoix": "HS", "4Gvoix": null, "3Gdata": "HS", "4Gdata": "HS", "5Gdata": "HS", "voix": "HS", "data": "HS", "propre": null, "detail": null, "debut_voix": NaN, "fin_voix": NaN, "debut_data": NaN, "fin_data": NaN, "debut": "2025-07-21 12:22:24", "fin": "2025-07-28"}, "geometry": {"type": "Point", "coordinates": [-1.14446, 46.173562]}}, {"type": "Feature", "properties": {"operateur": "Free", "departement": null, "code_postal": null, "code_insee": "17150", "commune": "SOUBRAN", "2Gvoix": "NE", "3Gvoix": "HS", "4Gvoix": null, "3Gdata": "HS", "4Gdata": "HS", "5Gdata": "HS", "voix": "HS", "data": "HS", "propre": null, "detail": null, "debut_voix": NaN, "fin_voix": NaN, "debut_data": NaN, "fin_data": NaN, "debut": "2025-07-11 11:02:22", "fin": "2025-08-11"}, "geometry": {"type": "Point", "coordinates": [-0.5072103, 45.3542729]}}, {"type": "Feature", "properties": {"operateur": "Free", "departement": null, "code_postal": null, "code_insee": "17250", "commune": "PLASSAY", "2Gvoix": "NE", "3Gvoix": "HS", "4Gvoix": null, "3Gdata": "HS", "4Gdata": "HS", "5Gdata": "HS", "voix": "HS", "data": "HS", "propre": null, "detail": null, "debut_voix": NaN, "fin_voix": NaN, "debut_data": NaN, "fin_data": NaN, "debut": "2025-07-21 18:42:24", "fin": "2025-07-28"}, "geometry": {"type": "Point", "coordinates": [-0.72167, 45.81667]}}, {"type": "Feature", "properties": {"operateur": "Free", "departement": null, "code_postal": null, "code_insee": "18000", "commune": "BOURGES", "2Gvoix": "NE", "3Gvoix": "HS", "4Gvoix": null, "3Gdata": "HS", "4Gdata": "HS", "5Gdata": "HS", "voix": "HS", "data": "HS", "propre": null, "detail": null, "debut_voix": NaN, "fin_voix": NaN, "debut_data": NaN, "fin_data": NaN, "debut": "2025-07-07 09:12:22", "fin": "2025-08-07"}, "geometry": {"type": "Point", "coordinates": [2.38849, 47.08344]}}, {"type": "Feature", "properties": {"operateur": "Free", "departement": null, "code_postal": null, "code_insee": "20000", "commune": "Ajaccio ", "2Gvoix": "NE", "3Gvoix": "HS", "4Gvoix": null, "3Gdata": "HS", "4Gdata": "HS", "5Gdata": "HS", "voix": "HS", "data": "HS", "propre": null, "detail": null, "debut_voix": NaN, "fin_voix": NaN, "debut_data": NaN, "fin_data": NaN, "debut": "2025-07-16 12:12:08", "fin": "2025-07-23"}, "geometry": {"type": "Point", "coordinates": [8.73366456, 41.93000226]}}, {"type": "Feature", "properties": {"operateur": "Free", "departement": null, "code_postal": null, "code_insee": "20250", "commune": "CORTE", "2Gvoix": "NE", "3Gvoix": "HS", "4Gvoix": null, "3Gdata": "HS", "4Gdata": "HS", "5Gdata": "NE", "voix": "HS", "data": "HS", "propre": null, "detail": null, "debut_voix": NaN, "fin_voix": NaN, "debut_data": NaN, "fin_data": NaN, "debut": "2025-07-17 03:41:57", "fin": "2025-07-24"}, "geometry": {"type": "Point", "coordinates": [9.030992, 42.229632]}}, {"type": "Feature", "properties": {"operateur": "Free", "departement": null, "code_postal": null, "code_insee": "21300", "commune": "CHENOVE", "2Gvoix": "NE", "3Gvoix": "HS", "4Gvoix": null, "3Gdata": "HS", "4Gdata": "HS", "5Gdata": "NE", "voix": "HS", "data": "HS", "propre": null, "detail": null, "debut_voix": NaN, "fin_voix": NaN, "debut_data": NaN, "fin_data": NaN, "debut": "2025-07-23 00:31:52", "fin": "2025-07-30"}, "geometry": {"type": "Point", "coordinates": [5.004722, 47.292632]}}, {"type": "Feature", "properties": {"operateur": "Free", "departement": null, "code_postal": null, "code_insee": "22520", "commune": "BINIC", "2Gvoix": "NE", "3Gvoix": "HS", "4Gvoix": null, "3Gdata": "HS", "4Gdata": "HS", "5Gdata": "HS", "voix": "HS", "data": "HS", "propre": null, "detail": null, "debut_voix": NaN, "fin_voix": NaN, "debut_data": NaN, "fin_data": NaN, "debut": "2025-07-21 10:21:37", "fin": "2025-07-28"}, "geometry": {"type": "Point", "coordinates": [-2.836124, 48.608373]}}, {"type": "Feature", "properties": {"operateur": "Free", "departement": null, "code_postal": null, "code_insee": "26000", "commune": "VALENCE", "2Gvoix": "NE", "3Gvoix": "HS", "4Gvoix": null, "3Gdata": "HS", "4Gdata": "HS", "5Gdata": "HS", "voix": "HS", "data": "HS", "propre": null, "detail": null, "debut_voix": NaN, "fin_voix": NaN, "debut_data": NaN, "fin_data": NaN, "debut": "2025-07-20 23:34:01", "fin": "2025-07-27"}, "geometry": {"type": "Point", "coordinates": [4.895157, 44.91113]}}, {"type": "Feature", "properties": {"operateur": "Free", "departement": null, "code_postal": null, "code_insee": "26110", "commune": "AUBRES", "2Gvoix": "NE", "3Gvoix": "HS", "4Gvoix": null, "3Gdata": "HS", "4Gdata": "HS", "5Gdata": "NE", "voix": "HS", "data": "HS", "propre": null, "detail": null, "debut_voix": NaN, "fin_voix": NaN, "debut_data": NaN, "fin_data": NaN, "debut": "2025-06-18 03:44:07", "fin": ""}, "geometry": {"type": "Point", "coordinates": [5.176666667, 44.37749722]}}, {"type": "Feature", "properties": {"operateur": "Free", "departement": null, "code_postal": null, "code_insee": "26470", "commune": "GUMIANE", "2Gvoix": "NE", "3Gvoix": "HS", "4Gvoix": null, "3Gdata": "HS", "4Gdata": "HS", "5Gdata": "HS", "voix": "HS", "data": "HS", "propre": null, "detail": null, "debut_voix": NaN, "fin_voix": NaN, "debut_data": NaN, "fin_data": NaN, "debut": "2025-07-21 08:14:03", "fin": "2025-07-28"}, "geometry": {"type": "Point", "coordinates": [5.26479, 44.507214]}}, {"type": "Feature", "properties": {"operateur": "Free", "departement": null, "code_postal": null, "code_insee": "27910", "commune": "RENNEVILLE", "2Gvoix": "NE", "3Gvoix": "HS", "4Gvoix": null, "3Gdata": "HS", "4Gdata": "HS", "5Gdata": "HS", "voix": "HS", "data": "HS", "propre": null, "detail": null, "debut_voix": NaN, "fin_voix": NaN, "debut_data": NaN, "fin_data": NaN, "debut": "2025-06-30 09:43:51", "fin": "2025-07-30"}, "geometry": {"type": "Point", "coordinates": [1.31133, 49.404656]}}, {"type": "Feature", "properties": {"operateur": "Free", "departement": null, "code_postal": null, "code_insee": "28410", "commune": "ABONDANT", "2Gvoix": "NE", "3Gvoix": "HS", "4Gvoix": null, "3Gdata": "HS", "4Gdata": "HS", "5Gdata": "HS", "voix": "HS", "data": "HS", "propre": null, "detail": null, "debut_voix": NaN, "fin_voix": NaN, "debut_data": NaN, "fin_data": NaN, "debut": "2025-06-22 15:53:47", "fin": ""}, "geometry": {"type": "Point", "coordinates": [1.43654676, 48.77381362]}}, {"type": "Feature", "properties": {"operateur": "Free", "departement": null, "code_postal": null, "code_insee": "30390", "commune": "DOMAZAN", "2Gvoix": "NE", "3Gvoix": "HS", "4Gvoix": null, "3Gdata": "HS", "4Gdata": "HS", "5Gdata": "NE", "voix": "HS", "data": "HS", "propre": null, "detail": null, "debut_voix": NaN, "fin_voix": NaN, "debut_data": NaN, "fin_data": NaN, "debut": "2025-07-21 02:33:19", "fin": "2025-07-28"}, "geometry": {"type": "Point", "coordinates": [4.662065, 43.921428]}}, {"type": "Feature", "properties": {"operateur": "Free", "departement": null, "code_postal": null, "code_insee": "30600", "commune": "VAUVERT", "2Gvoix": "NE", "3Gvoix": "HS", "4Gvoix": null, "3Gdata": "HS", "4Gdata": "HS", "5Gdata": "HS", "voix": "HS", "data": "HS", "propre": null, "detail": null, "debut_voix": NaN, "fin_voix": NaN, "debut_data": NaN, "fin_data": NaN, "debut": "2025-07-22 13:53:05", "fin": "2025-07-29"}, "geometry": {"type": "Point", "coordinates": [4.314215, 43.571191]}}, {"type": "Feature", "properties": {"operateur": "Free", "departement": null, "code_postal": null, "code_insee": "31670", "commune": "LABEGE", "2Gvoix": "NE", "3Gvoix": "HS", "4Gvoix": null, "3Gdata": "HS", "4Gdata": "HS", "5Gdata": "NE", "voix": "HS", "data": "HS", "propre": null, "detail": null, "debut_voix": NaN, "fin_voix": NaN, "debut_data": NaN, "fin_data": NaN, "debut": "2025-06-26 10:42:53", "fin": "2025-07-26"}, "geometry": {"type": "Point", "coordinates": [1.522486, 43.525886]}}, {"type": "Feature", "properties": {"operateur": "Free", "departement": null, "code_postal": null, "code_insee": "32100", "commune": "CONDOM", "2Gvoix": "NE", "3Gvoix": "HS", "4Gvoix": null, "3Gdata": "HS", "4Gdata": "HS", "5Gdata": "NE", "voix": "HS", "data": "HS", "propre": null, "detail": null, "debut_voix": NaN, "fin_voix": NaN, "debut_data": NaN, "fin_data": NaN, "debut": "2025-07-21 15:52:35", "fin": "2025-07-28"}, "geometry": {"type": "Point", "coordinates": [0.315876186368, 43.9570322054]}}, {"type": "Feature", "properties": {"operateur": "Free", "departement": null, "code_postal": null, "code_insee": "33160", "commune": "SALAUNES", "2Gvoix": "NE", "3Gvoix": "HS", "4Gvoix": null, "3Gdata": "HS", "4Gdata": "HS", "5Gdata": "NE", "voix": "HS", "data": "HS", "propre": null, "detail": null, "debut_voix": NaN, "fin_voix": NaN, "debut_data": NaN, "fin_data": NaN, "debut": "2025-07-22 22:32:11", "fin": "2025-07-29"}, "geometry": {"type": "Point", "coordinates": [-0.812170804, 44.931011385]}}, {"type": "Feature", "properties": {"operateur": "Free", "departement": null, "code_postal": null, "code_insee": "33860", "commune": "DONNEZAC", "2Gvoix": "NE", "3Gvoix": "HS", "4Gvoix": null, "3Gdata": "HS", "4Gdata": "HS", "5Gdata": "HS", "voix": "HS", "data": "HS", "propre": null, "detail": null, "debut_voix": NaN, "fin_voix": NaN, "debut_data": NaN, "fin_data": NaN, "debut": "2025-07-11 11:02:18", "fin": "2025-08-11"}, "geometry": {"type": "Point", "coordinates": [-0.436808, 45.2478]}}, {"type": "Feature", "properties": {"operateur": "Free", "departement": null, "code_postal": null, "code_insee": "38400", "commune": "SAINT MARTIN D HERES", "2Gvoix": "NE", "3Gvoix": "HS", "4Gvoix": null, "3Gdata": "HS", "4Gdata": "HS", "5Gdata": "NE", "voix": "HS", "data": "HS", "propre": null, "detail": null, "debut_voix": NaN, "fin_voix": NaN, "debut_data": NaN, "fin_data": NaN, "debut": "2025-07-22 22:54:07", "fin": "2025-07-29"}, "geometry": {"type": "Point", "coordinates": [5.75557, 45.161822]}}, {"type": "Feature", "properties": {"operateur": "Free", "departement": null, "code_postal": null, "code_insee": "38420", "commune": "DOMENE", "2Gvoix": "NE", "3Gvoix": "HS", "4Gvoix": null, "3Gdata": "HS", "4Gdata": "HS", "5Gdata": "NE", "voix": "HS", "data": "HS", "propre": null, "detail": null, "debut_voix": NaN, "fin_voix": NaN, "debut_data": NaN, "fin_data": NaN, "debut": "2025-06-30 13:54:16", "fin": "2025-07-30"}, "geometry": {"type": "Point", "coordinates": [5.837924, 45.201402]}}, {"type": "Feature", "properties": {"operateur": "Free", "departement": null, "code_postal": null, "code_insee": "38570", "commune": "TENCIN", "2Gvoix": "NE", "3Gvoix": "HS", "4Gvoix": null, "3Gdata": "HS", "4Gdata": "HS", "5Gdata": "HS", "voix": "HS", "data": "HS", "propre": null, "detail": null, "debut_voix": NaN, "fin_voix": NaN, "debut_data": NaN, "fin_data": NaN, "debut": "2025-07-23 00:23:55", "fin": "2025-07-30"}, "geometry": {"type": "Point", "coordinates": [5.94888873, 45.31457537]}}, {"type": "Feature", "properties": {"operateur": "Free", "departement": null, "code_postal": null, "code_insee": "39100", "commune": "DOLE", "2Gvoix": "NE", "3Gvoix": "HS", "4Gvoix": null, "3Gdata": "HS", "4Gdata": "HS", "5Gdata": "NE", "voix": "HS", "data": "HS", "propre": null, "detail": null, "debut_voix": NaN, "fin_voix": NaN, "debut_data": NaN, "fin_data": NaN, "debut": "2025-07-21 14:54:42", "fin": "2025-07-28"}, "geometry": {"type": "Point", "coordinates": [5.476111, 47.09]}}, {"type": "Feature", "properties": {"operateur": "Free", "departement": null, "code_postal": null, "code_insee": "39700", "commune": "VRIANGE", "2Gvoix": "NE", "3Gvoix": "HS", "4Gvoix": null, "3Gdata": "HS", "4Gdata": "HS", "5Gdata": "NE", "voix": "HS", "data": "HS", "propre": null, "detail": null, "debut_voix": NaN, "fin_voix": NaN, "debut_data": NaN, "fin_data": NaN, "debut": "2025-07-20 17:33:52", "fin": "2025-07-27"}, "geometry": {"type": "Point", "coordinates": [5.579444444, 47.176666667]}}, {"type": "Feature", "properties": {"operateur": "Free", "departement": null, "code_postal": null, "code_insee": "42320", "commune": "VALFLEURY", "2Gvoix": "NE", "3Gvoix": "HS", "4Gvoix": null, "3Gdata": "HS", "4Gdata": "HS", "5Gdata": "NE", "voix": "HS", "data": "HS", "propre": null, "detail": null, "debut_voix": NaN, "fin_voix": NaN, "debut_data": NaN, "fin_data": NaN, "debut": "2023-08-02 12:53:14", "fin": ""}, "geometry": {"type": "Point", "coordinates": [4.506945, 45.543212]}}, {"type": "Feature", "properties": {"operateur": "Free", "departement": null, "code_postal": null, "code_insee": "44190", "commune": "CLISSON", "2Gvoix": "NE", "3Gvoix": "OK", "4Gvoix": null, "3Gdata": "OK", "4Gdata": "HS", "5Gdata": "NE", "voix": "OK", "data": "DE", "propre": null, "detail": null, "debut_voix": NaN, "fin_voix": NaN, "debut_data": NaN, "fin_data": NaN, "debut": "2025-07-22 18:16:15", "fin": "2025-07-29"}, "geometry": {"type": "Point", "coordinates": [-1.27556, 47.09333]}}, {"type": "Feature", "properties": {"operateur": "Free", "departement": null, "code_postal": null, "code_insee": "45000", "commune": "ORLEANS", "2Gvoix": "NE", "3Gvoix": "HS", "4Gvoix": null, "3Gdata": "HS", "4Gdata": "HS", "5Gdata": "HS", "voix": "HS", "data": "HS", "propre": null, "detail": null, "debut_voix": NaN, "fin_voix": NaN, "debut_data": NaN, "fin_data": NaN, "debut": "2025-07-21 08:35:38", "fin": "2025-07-28"}, "geometry": {"type": "Point", "coordinates": [1.903044, 47.899837]}}, {"type": "Feature", "properties": {"operateur": "Free", "departement": null, "code_postal": null, "code_insee": "45400", "commune": "FLEURY LES AUBRAIS", "2Gvoix": "NE", "3Gvoix": "HS", "4Gvoix": null, "3Gdata": "HS", "4Gdata": "HS", "5Gdata": "NE", "voix": "HS", "data": "HS", "propre": null, "detail": null, "debut_voix": NaN, "fin_voix": NaN, "debut_data": NaN, "fin_data": NaN, "debut": "2025-07-21 15:15:41", "fin": "2025-07-28"}, "geometry": {"type": "Point", "coordinates": [1.908769, 47.93034]}}, {"type": "Feature", "properties": {"operateur": "Free", "departement": null, "code_postal": null, "code_insee": "48260", "commune": "NASBINALS", "2Gvoix": "NE", "3Gvoix": "HS", "4Gvoix": null, "3Gdata": "HS", "4Gdata": "HS", "5Gdata": "HS", "voix": "HS", "data": "HS", "propre": null, "detail": null, "debut_voix": NaN, "fin_voix": NaN, "debut_data": NaN, "fin_data": NaN, "debut": "2024-10-07 02:45:19", "fin": ""}, "geometry": {"type": "Point", "coordinates": [3.05944, 44.66278]}}, {"type": "Feature", "properties": {"operateur": "Free", "departement": null, "code_postal": null, "code_insee": "51000", "commune": "CHALONS EN CHAMPAGNE", "2Gvoix": "NE", "3Gvoix": "HS", "4Gvoix": null, "3Gdata": "HS", "4Gdata": "HS", "5Gdata": "NE", "voix": "HS", "data": "HS", "propre": null, "detail": null, "debut_voix": NaN, "fin_voix": NaN, "debut_data": NaN, "fin_data": NaN, "debut": "2025-07-12 09:24:46", "fin": "2025-08-12"}, "geometry": {"type": "Point", "coordinates": [4.34635278, 48.94941111]}}, {"type": "Feature", "properties": {"operateur": "Free", "departement": null, "code_postal": null, "code_insee": "51510", "commune": "COMPERTRIX", "2Gvoix": "NE", "3Gvoix": "HS", "4Gvoix": null, "3Gdata": "HS", "4Gdata": "HS", "5Gdata": "HS", "voix": "HS", "data": "HS", "propre": null, "detail": null, "debut_voix": NaN, "fin_voix": NaN, "debut_data": NaN, "fin_data": NaN, "debut": "2025-07-12 09:24:47", "fin": "2025-08-12"}, "geometry": {"type": "Point", "coordinates": [4.288039, 48.90928]}}, {"type": "Feature", "properties": {"operateur": "Free", "departement": null, "code_postal": null, "code_insee": "52100", "commune": "SAINT DIZIER", "2Gvoix": "NE", "3Gvoix": "HS", "4Gvoix": null, "3Gdata": "HS", "4Gdata": "HS", "5Gdata": "NE", "voix": "HS", "data": "HS", "propre": null, "detail": null, "debut_voix": NaN, "fin_voix": NaN, "debut_data": NaN, "fin_data": NaN, "debut": "2025-07-21 11:14:31", "fin": "2025-07-28"}, "geometry": {"type": "Point", "coordinates": [4.980438, 48.637557]}}, {"type": "Feature", "properties": {"operateur": "Free", "departement": null, "code_postal": null, "code_insee": "56250", "commune": "ELVEN", "2Gvoix": "NE", "3Gvoix": "HS", "4Gvoix": null, "3Gdata": "HS", "4Gdata": "HS", "5Gdata": "HS", "voix": "HS", "data": "HS", "propre": null, "detail": null, "debut_voix": NaN, "fin_voix": NaN, "debut_data": NaN, "fin_data": NaN, "debut": "2025-07-19 01:27:50", "fin": "2025-07-26"}, "geometry": {"type": "Point", "coordinates": [-2.58866861, 47.71966051]}}, {"type": "Feature", "properties": {"operateur": "Free", "departement": null, "code_postal": null, "code_insee": "56500", "commune": "LOCMINE", "2Gvoix": "NE", "3Gvoix": "HS", "4Gvoix": null, "3Gdata": "HS", "4Gdata": "HS", "5Gdata": "HS", "voix": "HS", "data": "HS", "propre": null, "detail": null, "debut_voix": NaN, "fin_voix": NaN, "debut_data": NaN, "fin_data": NaN, "debut": "2025-07-13 21:07:15", "fin": "2025-08-13"}, "geometry": {"type": "Point", "coordinates": [-2.83194983, 47.87944002]}}, {"type": "Feature", "properties": {"operateur": "Free", "departement": null, "code_postal": null, "code_insee": "57070", "commune": "METZ", "2Gvoix": "NE", "3Gvoix": "HS", "4Gvoix": null, "3Gdata": "HS", "4Gdata": "HS", "5Gdata": "HS", "voix": "HS", "data": "HS", "propre": null, "detail": null, "debut_voix": NaN, "fin_voix": NaN, "debut_data": NaN, "fin_data": NaN, "debut": "2023-09-13 09:56:52", "fin": ""}, "geometry": {"type": "Point", "coordinates": [6.22822, 49.116]}}, {"type": "Feature", "properties": {"operateur": "Free", "departement": null, "code_postal": null, "code_insee": "59300", "commune": "VALENCIENNES", "2Gvoix": "NE", "3Gvoix": "HS", "4Gvoix": null, "3Gdata": "HS", "4Gdata": "HS", "5Gdata": "NE", "voix": "HS", "data": "HS", "propre": null, "detail": null, "debut_voix": NaN, "fin_voix": NaN, "debut_data": NaN, "fin_data": NaN, "debut": "2025-06-27 17:45:51", "fin": "2025-07-27"}, "geometry": {"type": "Point", "coordinates": [3.512944, 50.369039]}}, {"type": "Feature", "properties": {"operateur": "Free", "departement": null, "code_postal": null, "code_insee": "59860", "commune": "Bruay-sur-l'Escaut", "2Gvoix": "NE", "3Gvoix": "HS", "4Gvoix": null, "3Gdata": "HS", "4Gdata": "HS", "5Gdata": "HS", "voix": "HS", "data": "HS", "propre": null, "detail": null, "debut_voix": NaN, "fin_voix": NaN, "debut_data": NaN, "fin_data": NaN, "debut": "2025-07-21 09:06:36", "fin": "2025-07-28"}, "geometry": {"type": "Point", "coordinates": [3.540093, 50.395969]}}, {"type": "Feature", "properties": {"operateur": "Free", "departement": null, "code_postal": null, "code_insee": "60157", "commune": "ELINCOURT-SAINTE-MARGUERITE", "2Gvoix": "NE", "3Gvoix": "HS", "4Gvoix": null, "3Gdata": "HS", "4Gdata": "HS", "5Gdata": "HS", "voix": "HS", "data": "HS", "propre": null, "detail": null, "debut_voix": NaN, "fin_voix": NaN, "debut_data": NaN, "fin_data": NaN, "debut": "2025-07-17 17:25:49", "fin": "2025-07-24"}, "geometry": {"type": "Point", "coordinates": [2.822748465, 49.51722239]}}, {"type": "Feature", "properties": {"operateur": "Free", "departement": null, "code_postal": null, "code_insee": "62800", "commune": "LIEVIN", "2Gvoix": "NE", "3Gvoix": "HS", "4Gvoix": null, "3Gdata": "HS", "4Gdata": "HS", "5Gdata": "NE", "voix": "HS", "data": "HS", "propre": null, "detail": null, "debut_voix": NaN, "fin_voix": NaN, "debut_data": NaN, "fin_data": NaN, "debut": "2025-07-22 22:45:10", "fin": "2025-07-29"}, "geometry": {"type": "Point", "coordinates": [2.781898, 50.433376]}}, {"type": "Feature", "properties": {"operateur": "Free", "departement": null, "code_postal": null, "code_insee": "63230", "commune": "SAINT-OURS", "2Gvoix": "NE", "3Gvoix": "HS", "4Gvoix": null, "3Gdata": "HS", "4Gdata": "HS", "5Gdata": "HS", "voix": "HS", "data": "HS", "propre": null, "detail": null, "debut_voix": NaN, "fin_voix": NaN, "debut_data": NaN, "fin_data": NaN, "debut": "2025-06-03 19:47:50", "fin": ""}, "geometry": {"type": "Point", "coordinates": [2.9238498, 45.86182774]}}, {"type": "Feature", "properties": {"operateur": "Free", "departement": null, "code_postal": null, "code_insee": "64560", "commune": "LARRAU", "2Gvoix": "NE", "3Gvoix": "HS", "4Gvoix": null, "3Gdata": "HS", "4Gdata": "HS", "5Gdata": "HS", "voix": "HS", "data": "HS", "propre": null, "detail": null, "debut_voix": NaN, "fin_voix": NaN, "debut_data": NaN, "fin_data": NaN, "debut": "2025-04-14 17:07:43", "fin": ""}, "geometry": {"type": "Point", "coordinates": [-1.03321, 43.03344]}}, {"type": "Feature", "properties": {"operateur": "Free", "departement": null, "code_postal": null, "code_insee": "67202", "commune": "WOLFISHEIM", "2Gvoix": "NE", "3Gvoix": "HS", "4Gvoix": null, "3Gdata": "HS", "4Gdata": "HS", "5Gdata": "HS", "voix": "HS", "data": "HS", "propre": null, "detail": null, "debut_voix": NaN, "fin_voix": NaN, "debut_data": NaN, "fin_data": NaN, "debut": "2025-01-14 03:37:20", "fin": ""}, "geometry": {"type": "Point", "coordinates": [7.66158778, 48.57927381]}}, {"type": "Feature", "properties": {"operateur": "Free", "departement": null, "code_postal": null, "code_insee": "67800", "commune": "BISCHHEIM", "2Gvoix": "NE", "3Gvoix": "HS", "4Gvoix": null, "3Gdata": "HS", "4Gdata": "HS", "5Gdata": "NE", "voix": "HS", "data": "HS", "propre": null, "detail": null, "debut_voix": NaN, "fin_voix": NaN, "debut_data": NaN, "fin_data": NaN, "debut": "2025-07-22 08:07:27", "fin": "2025-07-29"}, "geometry": {"type": "Point", "coordinates": [7.768652, 48.628313]}}, {"type": "Feature", "properties": {"operateur": "Free", "departement": null, "code_postal": null, "code_insee": "68000", "commune": "COLMAR", "2Gvoix": "NE", "3Gvoix": "HS", "4Gvoix": null, "3Gdata": "HS", "4Gdata": "HS", "5Gdata": "NE", "voix": "HS", "data": "HS", "propre": null, "detail": null, "debut_voix": NaN, "fin_voix": NaN, "debut_data": NaN, "fin_data": NaN, "debut": "2025-07-21 14:37:20", "fin": "2025-07-28"}, "geometry": {"type": "Point", "coordinates": [7.374444, 48.081669]}}, {"type": "Feature", "properties": {"operateur": "Free", "departement": null, "code_postal": null, "code_insee": "68280", "commune": "SUNDHOFFEN", "2Gvoix": "NE", "3Gvoix": "HS", "4Gvoix": null, "3Gdata": "HS", "4Gdata": "HS", "5Gdata": "HS", "voix": "HS", "data": "HS", "propre": null, "detail": null, "debut_voix": NaN, "fin_voix": NaN, "debut_data": NaN, "fin_data": NaN, "debut": "2025-07-21 14:37:07", "fin": "2025-07-28"}, "geometry": {"type": "Point", "coordinates": [7.45115936, 48.04599158]}}, {"type": "Feature", "properties": {"operateur": "Free", "departement": null, "code_postal": null, "code_insee": "69009", "commune": "LYON", "2Gvoix": "NE", "3Gvoix": "HS", "4Gvoix": null, "3Gdata": "HS", "4Gdata": "HS", "5Gdata": "HS", "voix": "HS", "data": "HS", "propre": null, "detail": null, "debut_voix": NaN, "fin_voix": NaN, "debut_data": NaN, "fin_data": NaN, "debut": "2023-04-28 15:26:16", "fin": ""}, "geometry": {"type": "Point", "coordinates": [4.80383, 45.765051]}}, {"type": "Feature", "properties": {"operateur": "Free", "departement": null, "code_postal": null, "code_insee": "69100", "commune": "VILLEURBANNE", "2Gvoix": "NE", "3Gvoix": "HS", "4Gvoix": null, "3Gdata": "HS", "4Gdata": "HS", "5Gdata": "HS", "voix": "HS", "data": "HS", "propre": null, "detail": null, "debut_voix": NaN, "fin_voix": NaN, "debut_data": NaN, "fin_data": NaN, "debut": "2025-05-24 08:16:54", "fin": ""}, "geometry": {"type": "Point", "coordinates": [4.892332, 45.780049]}}, {"type": "Feature", "properties": {"operateur": "Free", "departement": null, "code_postal": null, "code_insee": "69100", "commune": "VILLEURBANNE", "2Gvoix": "NE", "3Gvoix": "HS", "4Gvoix": null, "3Gdata": "HS", "4Gdata": "HS", "5Gdata": "HS", "voix": "HS", "data": "HS", "propre": null, "detail": null, "debut_voix": NaN, "fin_voix": NaN, "debut_data": NaN, "fin_data": NaN, "debut": "2025-07-21 09:26:47", "fin": "2025-07-28"}, "geometry": {"type": "Point", "coordinates": [4.876907, 45.767851]}}, {"type": "Feature", "properties": {"operateur": "Free", "departement": null, "code_postal": null, "code_insee": "69300", "commune": "CALUIRE-ET-CUIRE", "2Gvoix": "NE", "3Gvoix": "HS", "4Gvoix": null, "3Gdata": "HS", "4Gdata": "OK", "5Gdata": "NE", "voix": "HS", "data": "OK", "propre": null, "detail": null, "debut_voix": NaN, "fin_voix": NaN, "debut_data": NaN, "fin_data": NaN, "debut": "2025-05-17 03:27:02", "fin": ""}, "geometry": {"type": "Point", "coordinates": [4.8541668, 45.78861128]}}, {"type": "Feature", "properties": {"operateur": "Free", "departement": null, "code_postal": null, "code_insee": "69770", "commune": "VILLECHENEVE", "2Gvoix": "NE", "3Gvoix": "HS", "4Gvoix": null, "3Gdata": "HS", "4Gdata": "HS", "5Gdata": "HS", "voix": "HS", "data": "HS", "propre": null, "detail": null, "debut_voix": NaN, "fin_voix": NaN, "debut_data": NaN, "fin_data": NaN, "debut": "2025-06-10 09:16:46", "fin": ""}, "geometry": {"type": "Point", "coordinates": [4.408389, 45.803911]}}, {"type": "Feature", "properties": {"operateur": "Free", "departement": null, "code_postal": null, "code_insee": "70110", "commune": "VELLECHEVREUX-ET-COURBENANS", "2Gvoix": "NE", "3Gvoix": "HS", "4Gvoix": null, "3Gdata": "HS", "4Gdata": "HS", "5Gdata": "HS", "voix": "HS", "data": "HS", "propre": null, "detail": null, "debut_voix": NaN, "fin_voix": NaN, "debut_data": NaN, "fin_data": NaN, "debut": "2025-07-23 00:26:21", "fin": "2025-07-30"}, "geometry": {"type": "Point", "coordinates": [6.542805691, 47.542379926]}}, {"type": "Feature", "properties": {"operateur": "Free", "departement": null, "code_postal": null, "code_insee": "70200", "commune": "AMBLANS-ET-VELOTTE", "2Gvoix": "NE", "3Gvoix": "HS", "4Gvoix": null, "3Gdata": "HS", "4Gdata": "HS", "5Gdata": "HS", "voix": "HS", "data": "HS", "propre": null, "detail": null, "debut_voix": NaN, "fin_voix": NaN, "debut_data": NaN, "fin_data": NaN, "debut": "2025-07-21 21:46:28", "fin": "2025-07-28"}, "geometry": {"type": "Point", "coordinates": [6.42139308, 47.67965488]}}, {"type": "Feature", "properties": {"operateur": "Free", "departement": null, "code_postal": null, "code_insee": "70200", "commune": "LURE", "2Gvoix": "NE", "3Gvoix": "HS", "4Gvoix": null, "3Gdata": "HS", "4Gdata": "HS", "5Gdata": "HS", "voix": "HS", "data": "HS", "propre": null, "detail": null, "debut_voix": NaN, "fin_voix": NaN, "debut_data": NaN, "fin_data": NaN, "debut": "2025-07-21 21:46:33", "fin": "2025-07-28"}, "geometry": {"type": "Point", "coordinates": [6.47085308, 47.69465919]}}, {"type": "Feature", "properties": {"operateur": "Free", "departement": null, "code_postal": null, "code_insee": "70240", "commune": "GENEVREUILLE", "2Gvoix": "NE", "3Gvoix": "HS", "4Gvoix": null, "3Gdata": "HS", "4Gdata": "HS", "5Gdata": "HS", "voix": "HS", "data": "HS", "propre": null, "detail": null, "debut_voix": NaN, "fin_voix": NaN, "debut_data": NaN, "fin_data": NaN, "debut": "2025-07-21 21:46:24", "fin": "2025-07-28"}, "geometry": {"type": "Point", "coordinates": [6.377834, 47.674244]}}, {"type": "Feature", "properties": {"operateur": "Free", "departement": null, "code_postal": null, "code_insee": "70440", "commune": "HAUT-DU-THEM-CHATEAU-LAMBERT", "2Gvoix": "NE", "3Gvoix": "HS", "4Gvoix": null, "3Gdata": "HS", "4Gdata": "HS", "5Gdata": "NE", "voix": "HS", "data": "HS", "propre": null, "detail": null, "debut_voix": NaN, "fin_voix": NaN, "debut_data": NaN, "fin_data": NaN, "debut": "2025-07-23 00:26:29", "fin": "2025-07-30"}, "geometry": {"type": "Point", "coordinates": [6.758124, 47.856771]}}, {"type": "Feature", "properties": {"operateur": "Free", "departement": null, "code_postal": null, "code_insee": "74890", "commune": "BONS-EN-CHABLAIS", "2Gvoix": "NE", "3Gvoix": "HS", "4Gvoix": null, "3Gdata": "HS", "4Gdata": "HS", "5Gdata": "HS", "voix": "HS", "data": "HS", "propre": null, "detail": null, "debut_voix": NaN, "fin_voix": NaN, "debut_data": NaN, "fin_data": NaN, "debut": "2025-07-17 23:08:53", "fin": "2025-07-24"}, "geometry": {"type": "Point", "coordinates": [6.33573451, 46.27210929]}}, {"type": "Feature", "properties": {"operateur": "Free", "departement": null, "code_postal": null, "code_insee": "75007", "commune": "PARIS", "2Gvoix": "NE", "3Gvoix": "OK", "4Gvoix": null, "3Gdata": "OK", "4Gdata": "HS", "5Gdata": "NE", "voix": "OK", "data": "DE", "propre": null, "detail": null, "debut_voix": NaN, "fin_voix": NaN, "debut_data": NaN, "fin_data": NaN, "debut": "2025-07-12 05:58:34", "fin": "2025-08-12"}, "geometry": {"type": "Point", "coordinates": [2.318456, 48.857592]}}, {"type": "Feature", "properties": {"operateur": "Free", "departement": null, "code_postal": null, "code_insee": "75008", "commune": "PARIS", "2Gvoix": "NE", "3Gvoix": "HS", "4Gvoix": null, "3Gdata": "HS", "4Gdata": "HS", "5Gdata": "NE", "voix": "HS", "data": "HS", "propre": null, "detail": null, "debut_voix": NaN, "fin_voix": NaN, "debut_data": NaN, "fin_data": NaN, "debut": "2025-07-22 22:28:37", "fin": "2025-07-29"}, "geometry": {"type": "Point", "coordinates": [2.315199185, 48.87370638]}}, {"type": "Feature", "properties": {"operateur": "Free", "departement": null, "code_postal": null, "code_insee": "75009", "commune": "PARIS", "2Gvoix": "NE", "3Gvoix": "HS", "4Gvoix": null, "3Gdata": "HS", "4Gdata": "HS", "5Gdata": "NE", "voix": "HS", "data": "HS", "propre": null, "detail": null, "debut_voix": NaN, "fin_voix": NaN, "debut_data": NaN, "fin_data": NaN, "debut": "2025-07-10 08:48:37", "fin": "2025-08-10"}, "geometry": {"type": "Point", "coordinates": [2.335965, 48.873574]}}, {"type": "Feature", "properties": {"operateur": "Free", "departement": null, "code_postal": null, "code_insee": "75011", "commune": "PARIS", "2Gvoix": "NE", "3Gvoix": "HS", "4Gvoix": null, "3Gdata": "HS", "4Gdata": "OK", "5Gdata": "OK", "voix": "HS", "data": "OK", "propre": null, "detail": null, "debut_voix": NaN, "fin_voix": NaN, "debut_data": NaN, "fin_data": NaN, "debut": "2025-07-22 15:18:28", "fin": "2025-07-29"}, "geometry": {"type": "Point", "coordinates": [2.372212, 48.858362]}}, {"type": "Feature", "properties": {"operateur": "Free", "departement": null, "code_postal": null, "code_insee": "75013", "commune": "PARIS", "2Gvoix": "NE", "3Gvoix": "HS", "4Gvoix": null, "3Gdata": "HS", "4Gdata": "OK", "5Gdata": "NE", "voix": "HS", "data": "OK", "propre": null, "detail": null, "debut_voix": NaN, "fin_voix": NaN, "debut_data": NaN, "fin_data": NaN, "debut": "2025-07-11 14:38:23", "fin": "2025-08-11"}, "geometry": {"type": "Point", "coordinates": [2.349112, 48.829198]}}, {"type": "Feature", "properties": {"operateur": "Free", "departement": null, "code_postal": null, "code_insee": "75013", "commune": "PARIS", "2Gvoix": "NE", "3Gvoix": "HS", "4Gvoix": null, "3Gdata": "HS", "4Gdata": "HS", "5Gdata": "HS", "voix": "HS", "data": "HS", "propre": null, "detail": null, "debut_voix": NaN, "fin_voix": NaN, "debut_data": NaN, "fin_data": NaN, "debut": "2025-07-10 21:08:29", "fin": "2025-08-10"}, "geometry": {"type": "Point", "coordinates": [2.352955, 48.8293]}}, {"type": "Feature", "properties": {"operateur": "Free", "departement": null, "code_postal": null, "code_insee": "75017", "commune": "PARIS", "2Gvoix": "NE", "3Gvoix": "HS", "4Gvoix": null, "3Gdata": "HS", "4Gdata": "HS", "5Gdata": "NE", "voix": "HS", "data": "HS", "propre": null, "detail": null, "debut_voix": NaN, "fin_voix": NaN, "debut_data": NaN, "fin_data": NaN, "debut": "2025-07-16 08:38:10", "fin": "2025-07-23"}, "geometry": {"type": "Point", "coordinates": [2.322032, 48.889747]}}, {"type": "Feature", "properties": {"operateur": "Free", "departement": null, "code_postal": null, "code_insee": "77390", "commune": "GUIGNES", "2Gvoix": "NE", "3Gvoix": "HS", "4Gvoix": null, "3Gdata": "HS", "4Gdata": "HS", "5Gdata": "HS", "voix": "HS", "data": "HS", "propre": null, "detail": null, "debut_voix": NaN, "fin_voix": NaN, "debut_data": NaN, "fin_data": NaN, "debut": "2024-06-13 00:37:24", "fin": ""}, "geometry": {"type": "Point", "coordinates": [2.786179, 48.63368]}}, {"type": "Feature", "properties": {"operateur": "Free", "departement": null, "code_postal": null, "code_insee": "77470", "commune": "TRILPORT", "2Gvoix": "NE", "3Gvoix": "HS", "4Gvoix": null, "3Gdata": "HS", "4Gdata": "HS", "5Gdata": "HS", "voix": "HS", "data": "HS", "propre": null, "detail": null, "debut_voix": NaN, "fin_voix": NaN, "debut_data": NaN, "fin_data": NaN, "debut": "2025-07-07 10:07:13", "fin": "2025-08-07"}, "geometry": {"type": "Point", "coordinates": [2.94903, 48.96608]}}, {"type": "Feature", "properties": {"operateur": "Free", "departement": null, "code_postal": null, "code_insee": "77840", "commune": "COULOMBS-EN-VALOIS", "2Gvoix": "NE", "3Gvoix": "HS", "4Gvoix": null, "3Gdata": "HS", "4Gdata": "HS", "5Gdata": "HS", "voix": "HS", "data": "HS", "propre": null, "detail": null, "debut_voix": NaN, "fin_voix": NaN, "debut_data": NaN, "fin_data": NaN, "debut": "2025-07-01 23:47:25", "fin": "2025-08-01"}, "geometry": {"type": "Point", "coordinates": [3.130083831, 49.06528632]}}, {"type": "Feature", "properties": {"operateur": "Free", "departement": null, "code_postal": null, "code_insee": "78200", "commune": "MANTES LA JOLIE", "2Gvoix": "NE", "3Gvoix": "HS", "4Gvoix": null, "3Gdata": "HS", "4Gdata": "HS", "5Gdata": "NE", "voix": "HS", "data": "HS", "propre": null, "detail": null, "debut_voix": NaN, "fin_voix": NaN, "debut_data": NaN, "fin_data": NaN, "debut": "2025-07-21 11:40:05", "fin": "2025-07-28"}, "geometry": {"type": "Point", "coordinates": [1.694175, 48.993061]}}, {"type": "Feature", "properties": {"operateur": "Free", "departement": null, "code_postal": null, "code_insee": "78520", "commune": "LIMAY", "2Gvoix": "NE", "3Gvoix": "HS", "4Gvoix": null, "3Gdata": "HS", "4Gdata": "HS", "5Gdata": "HS", "voix": "HS", "data": "HS", "propre": null, "detail": null, "debut_voix": NaN, "fin_voix": NaN, "debut_data": NaN, "fin_data": NaN, "debut": "2024-10-02 21:40:11", "fin": ""}, "geometry": {"type": "Point", "coordinates": [1.754575, 48.980831]}}, {"type": "Feature", "properties": {"operateur": "Free", "departement": null, "code_postal": null, "code_insee": "78570", "commune": "Chanteloup les Vignes", "2Gvoix": "NE", "3Gvoix": "HS", "4Gvoix": null, "3Gdata": "HS", "4Gdata": "HS", "5Gdata": "HS", "voix": "HS", "data": "HS", "propre": null, "detail": null, "debut_voix": NaN, "fin_voix": NaN, "debut_data": NaN, "fin_data": NaN, "debut": "2025-07-16 13:27:10", "fin": "2025-07-23"}, "geometry": {"type": "Point", "coordinates": [2.034356, 48.972045]}}, {"type": "Feature", "properties": {"operateur": "Free", "departement": null, "code_postal": null, "code_insee": "78740", "commune": "VAUX SUR SEINE", "2Gvoix": "NE", "3Gvoix": "HS", "4Gvoix": null, "3Gdata": "HS", "4Gdata": "HS", "5Gdata": "HS", "voix": "HS", "data": "HS", "propre": null, "detail": null, "debut_voix": NaN, "fin_voix": NaN, "debut_data": NaN, "fin_data": NaN, "debut": "2025-07-22 17:40:01", "fin": "2025-07-29"}, "geometry": {"type": "Point", "coordinates": [1.964921, 49.007401]}}, {"type": "Feature", "properties": {"operateur": "Free", "departement": null, "code_postal": null, "code_insee": "78740", "commune": "VAUX-SUR-SEINE", "2Gvoix": "NE", "3Gvoix": "HS", "4Gvoix": null, "3Gdata": "HS", "4Gdata": "HS", "5Gdata": "HS", "voix": "HS", "data": "HS", "propre": null, "detail": null, "debut_voix": NaN, "fin_voix": NaN, "debut_data": NaN, "fin_data": NaN, "debut": "2025-07-22 17:40:01", "fin": "2025-07-29"}, "geometry": {"type": "Point", "coordinates": [1.95883309, 49.01748118]}}, {"type": "Feature", "properties": {"operateur": "Free", "departement": null, "code_postal": null, "code_insee": "80000", "commune": "AMIENS", "2Gvoix": "NE", "3Gvoix": "HS", "4Gvoix": null, "3Gdata": "HS", "4Gdata": "HS", "5Gdata": "NE", "voix": "HS", "data": "HS", "propre": null, "detail": null, "debut_voix": NaN, "fin_voix": NaN, "debut_data": NaN, "fin_data": NaN, "debut": "2025-07-21 11:29:55", "fin": "2025-07-28"}, "geometry": {"type": "Point", "coordinates": [2.281558, 49.8772]}}, {"type": "Feature", "properties": {"operateur": "Free", "departement": null, "code_postal": null, "code_insee": "83119", "commune": "BRUE-AURIAC", "2Gvoix": "NE", "3Gvoix": "HS", "4Gvoix": null, "3Gdata": "HS", "4Gdata": "HS", "5Gdata": "NE", "voix": "HS", "data": "HS", "propre": null, "detail": null, "debut_voix": NaN, "fin_voix": NaN, "debut_data": NaN, "fin_data": NaN, "debut": "2025-07-22 22:09:25", "fin": "2025-07-29"}, "geometry": {"type": "Point", "coordinates": [5.936256959, 43.52302577]}}, {"type": "Feature", "properties": {"operateur": "Free", "departement": null, "code_postal": null, "code_insee": "83136", "commune": "LA ROQUEBRUSSANNE", "2Gvoix": "NE", "3Gvoix": "HS", "4Gvoix": null, "3Gdata": "HS", "4Gdata": "HS", "5Gdata": "HS", "voix": "HS", "data": "HS", "propre": null, "detail": null, "debut_voix": NaN, "fin_voix": NaN, "debut_data": NaN, "fin_data": NaN, "debut": "2025-07-22 22:09:08", "fin": "2025-07-29"}, "geometry": {"type": "Point", "coordinates": [5.991944, 43.368611]}}, {"type": "Feature", "properties": {"operateur": "Free", "departement": null, "code_postal": null, "code_insee": "83143", "commune": "LE VAL", "2Gvoix": "NE", "3Gvoix": "HS", "4Gvoix": null, "3Gdata": "HS", "4Gdata": "HS", "5Gdata": "HS", "voix": "HS", "data": "HS", "propre": null, "detail": null, "debut_voix": NaN, "fin_voix": NaN, "debut_data": NaN, "fin_data": NaN, "debut": "2025-07-22 22:09:31", "fin": "2025-07-29"}, "geometry": {"type": "Point", "coordinates": [6.06635, 43.42786]}}, {"type": "Feature", "properties": {"operateur": "Free", "departement": null, "code_postal": null, "code_insee": "83149", "commune": "BRAS", "2Gvoix": "NE", "3Gvoix": "HS", "4Gvoix": null, "3Gdata": "HS", "4Gdata": "HS", "5Gdata": "HS", "voix": "HS", "data": "HS", "propre": null, "detail": null, "debut_voix": NaN, "fin_voix": NaN, "debut_data": NaN, "fin_data": NaN, "debut": "2025-07-22 22:09:30", "fin": "2025-07-29"}, "geometry": {"type": "Point", "coordinates": [5.95471987, 43.47000003]}}, {"type": "Feature", "properties": {"operateur": "Free", "departement": null, "code_postal": null, "code_insee": "83170", "commune": "BRIGNOLES", "2Gvoix": "NE", "3Gvoix": "HS", "4Gvoix": null, "3Gdata": "HS", "4Gdata": "HS", "5Gdata": "HS", "voix": "HS", "data": "HS", "propre": null, "detail": null, "debut_voix": NaN, "fin_voix": NaN, "debut_data": NaN, "fin_data": NaN, "debut": "2025-07-22 22:09:30", "fin": "2025-07-29"}, "geometry": {"type": "Point", "coordinates": [6.03944462, 43.38210987]}}, {"type": "Feature", "properties": {"operateur": "Free", "departement": null, "code_postal": null, "code_insee": "83170", "commune": "BRIGNOLES", "2Gvoix": "NE", "3Gvoix": "HS", "4Gvoix": null, "3Gdata": "HS", "4Gdata": "HS", "5Gdata": "HS", "voix": "HS", "data": "HS", "propre": null, "detail": null, "debut_voix": NaN, "fin_voix": NaN, "debut_data": NaN, "fin_data": NaN, "debut": "2025-07-22 22:09:31", "fin": "2025-07-29"}, "geometry": {"type": "Point", "coordinates": [6.075445, 43.40549]}}, {"type": "Feature", "properties": {"operateur": "Free", "departement": null, "code_postal": null, "code_insee": "83170", "commune": "BRIGNOLES", "2Gvoix": "NE", "3Gvoix": "HS", "4Gvoix": null, "3Gdata": "HS", "4Gdata": "HS", "5Gdata": "HS", "voix": "HS", "data": "HS", "propre": null, "detail": null, "debut_voix": NaN, "fin_voix": NaN, "debut_data": NaN, "fin_data": NaN, "debut": "2025-07-22 22:09:31", "fin": "2025-07-29"}, "geometry": {"type": "Point", "coordinates": [6.052252, 43.405248]}}, {"type": "Feature", "properties": {"operateur": "Free", "departement": null, "code_postal": null, "code_insee": "83170", "commune": "BRIGNOLES", "2Gvoix": "NE", "3Gvoix": "HS", "4Gvoix": null, "3Gdata": "HS", "4Gdata": "HS", "5Gdata": "HS", "voix": "HS", "data": "HS", "propre": null, "detail": null, "debut_voix": NaN, "fin_voix": NaN, "debut_data": NaN, "fin_data": NaN, "debut": "2025-07-22 22:09:25", "fin": "2025-07-29"}, "geometry": {"type": "Point", "coordinates": [6.01125073, 43.4250252]}}, {"type": "Feature", "properties": {"operateur": "Free", "departement": null, "code_postal": null, "code_insee": "83170", "commune": "CAMPS LA SOURCE", "2Gvoix": "NE", "3Gvoix": "HS", "4Gvoix": null, "3Gdata": "HS", "4Gdata": "HS", "5Gdata": "HS", "voix": "HS", "data": "HS", "propre": null, "detail": null, "debut_voix": NaN, "fin_voix": NaN, "debut_data": NaN, "fin_data": NaN, "debut": "2025-07-22 22:09:21", "fin": "2025-07-29"}, "geometry": {"type": "Point", "coordinates": [6.095957, 43.365702]}}, {"type": "Feature", "properties": {"operateur": "Free", "departement": null, "code_postal": null, "code_insee": "83170", "commune": "CELLE", "2Gvoix": "NE", "3Gvoix": "HS", "4Gvoix": null, "3Gdata": "HS", "4Gdata": "HS", "5Gdata": "NE", "voix": "HS", "data": "HS", "propre": null, "detail": null, "debut_voix": NaN, "fin_voix": NaN, "debut_data": NaN, "fin_data": NaN, "debut": "2025-07-22 22:09:18", "fin": "2025-07-29"}, "geometry": {"type": "Point", "coordinates": [6.02607221, 43.39452475]}}, {"type": "Feature", "properties": {"operateur": "Free", "departement": null, "code_postal": null, "code_insee": "83170", "commune": "ROUGIERS", "2Gvoix": "NE", "3Gvoix": "HS", "4Gvoix": null, "3Gdata": "HS", "4Gdata": "HS", "5Gdata": "HS", "voix": "HS", "data": "HS", "propre": null, "detail": null, "debut_voix": NaN, "fin_voix": NaN, "debut_data": NaN, "fin_data": NaN, "debut": "2025-07-22 22:09:08", "fin": "2025-07-29"}, "geometry": {"type": "Point", "coordinates": [5.855173, 43.388154]}}, {"type": "Feature", "properties": {"operateur": "Free", "departement": null, "code_postal": null, "code_insee": "83170", "commune": "TOURVES", "2Gvoix": "NE", "3Gvoix": "HS", "4Gvoix": null, "3Gdata": "HS", "4Gdata": "HS", "5Gdata": "HS", "voix": "HS", "data": "HS", "propre": null, "detail": null, "debut_voix": NaN, "fin_voix": NaN, "debut_data": NaN, "fin_data": NaN, "debut": "2025-07-22 22:09:09", "fin": "2025-07-29"}, "geometry": {"type": "Point", "coordinates": [5.9261692, 43.4097743]}}, {"type": "Feature", "properties": {"operateur": "Free", "departement": null, "code_postal": null, "code_insee": "83170", "commune": "Tourves", "2Gvoix": "NE", "3Gvoix": "HS", "4Gvoix": null, "3Gdata": "HS", "4Gdata": "HS", "5Gdata": "HS", "voix": "HS", "data": "HS", "propre": null, "detail": null, "debut_voix": NaN, "fin_voix": NaN, "debut_data": NaN, "fin_data": NaN, "debut": "2025-07-22 22:09:09", "fin": "2025-07-29"}, "geometry": {"type": "Point", "coordinates": [5.919353177, 43.43461417]}}, {"type": "Feature", "properties": {"operateur": "Free", "departement": null, "code_postal": null, "code_insee": "83170", "commune": "VINS SUR CARAMY", "2Gvoix": "NE", "3Gvoix": "HS", "4Gvoix": null, "3Gdata": "HS", "4Gdata": "HS", "5Gdata": "HS", "voix": "HS", "data": "HS", "propre": null, "detail": null, "debut_voix": NaN, "fin_voix": NaN, "debut_data": NaN, "fin_data": NaN, "debut": "2025-07-22 22:09:04", "fin": "2025-07-29"}, "geometry": {"type": "Point", "coordinates": [6.14065165, 43.434525831]}}, {"type": "Feature", "properties": {"operateur": "Free", "departement": null, "code_postal": null, "code_insee": "83340", "commune": "CABASSE", "2Gvoix": "NE", "3Gvoix": "HS", "4Gvoix": null, "3Gdata": "HS", "4Gdata": "HS", "5Gdata": "NE", "voix": "HS", "data": "HS", "propre": null, "detail": null, "debut_voix": NaN, "fin_voix": NaN, "debut_data": NaN, "fin_data": NaN, "debut": "2025-07-22 22:09:25", "fin": "2025-07-29"}, "geometry": {"type": "Point", "coordinates": [6.22027, 43.43166]}}, {"type": "Feature", "properties": {"operateur": "Free", "departement": null, "code_postal": null, "code_insee": "83380", "commune": "ROQUEBRUNE SUR ARGENS", "2Gvoix": "NE", "3Gvoix": "HS", "4Gvoix": null, "3Gdata": "HS", "4Gdata": "HS", "5Gdata": "HS", "voix": "HS", "data": "HS", "propre": null, "detail": null, "debut_voix": NaN, "fin_voix": NaN, "debut_data": NaN, "fin_data": NaN, "debut": "2025-07-15 05:59:10", "fin": "2025-08-15"}, "geometry": {"type": "Point", "coordinates": [6.671613623, 43.36451428]}}, {"type": "Feature", "properties": {"operateur": "Free", "departement": null, "code_postal": null, "code_insee": "83470", "commune": "OLLIERES", "2Gvoix": "NE", "3Gvoix": "HS", "4Gvoix": null, "3Gdata": "HS", "4Gdata": "HS", "5Gdata": "NE", "voix": "HS", "data": "HS", "propre": null, "detail": null, "debut_voix": NaN, "fin_voix": NaN, "debut_data": NaN, "fin_data": NaN, "debut": "2025-07-22 22:09:11", "fin": "2025-07-29"}, "geometry": {"type": "Point", "coordinates": [5.833148, 43.478041]}}, {"type": "Feature", "properties": {"operateur": "Free", "departement": null, "code_postal": null, "code_insee": "83470", "commune": "SAINT MAXIMIN LA SAINTE BAUME", "2Gvoix": "NE", "3Gvoix": "HS", "4Gvoix": null, "3Gdata": "HS", "4Gdata": "HS", "5Gdata": "HS", "voix": "HS", "data": "HS", "propre": null, "detail": null, "debut_voix": NaN, "fin_voix": NaN, "debut_data": NaN, "fin_data": NaN, "debut": "2025-07-22 22:09:11", "fin": "2025-07-29"}, "geometry": {"type": "Point", "coordinates": [5.82667, 43.40806]}}, {"type": "Feature", "properties": {"operateur": "Free", "departement": null, "code_postal": null, "code_insee": "83470", "commune": "SAINT-MAXIMIN-LA-SAINTE-BAUME", "2Gvoix": "NE", "3Gvoix": "HS", "4Gvoix": null, "3Gdata": "HS", "4Gdata": "HS", "5Gdata": "HS", "voix": "HS", "data": "HS", "propre": null, "detail": null, "debut_voix": NaN, "fin_voix": NaN, "debut_data": NaN, "fin_data": NaN, "debut": "2025-07-22 22:09:11", "fin": "2025-07-29"}, "geometry": {"type": "Point", "coordinates": [5.877281, 43.450296]}}, {"type": "Feature", "properties": {"operateur": "Free", "departement": null, "code_postal": null, "code_insee": "83470", "commune": "St maximin la sainte baume", "2Gvoix": "NE", "3Gvoix": "HS", "4Gvoix": null, "3Gdata": "HS", "4Gdata": "HS", "5Gdata": "HS", "voix": "HS", "data": "HS", "propre": null, "detail": null, "debut_voix": NaN, "fin_voix": NaN, "debut_data": NaN, "fin_data": NaN, "debut": "2025-07-22 22:09:11", "fin": "2025-07-29"}, "geometry": {"type": "Point", "coordinates": [5.84173961, 43.42324955]}}, {"type": "Feature", "properties": {"operateur": "Free", "departement": null, "code_postal": null, "code_insee": "83470", "commune": "SAINT-MAXIMIN-LA-SAINTE-BAUME", "2Gvoix": "NE", "3Gvoix": "HS", "4Gvoix": null, "3Gdata": "HS", "4Gdata": "HS", "5Gdata": "HS", "voix": "HS", "data": "HS", "propre": null, "detail": null, "debut_voix": NaN, "fin_voix": NaN, "debut_data": NaN, "fin_data": NaN, "debut": "2025-07-22 22:09:07", "fin": "2025-07-29"}, "geometry": {"type": "Point", "coordinates": [5.849469905, 43.44886937]}}, {"type": "Feature", "properties": {"operateur": "Free", "departement": null, "code_postal": null, "code_insee": "83470", "commune": "SEILLONS-SOURCE-D'ARGENS", "2Gvoix": "NE", "3Gvoix": "HS", "4Gvoix": null, "3Gdata": "HS", "4Gdata": "HS", "5Gdata": "HS", "voix": "HS", "data": "HS", "propre": null, "detail": null, "debut_voix": NaN, "fin_voix": NaN, "debut_data": NaN, "fin_data": NaN, "debut": "2025-07-22 22:09:06", "fin": "2025-07-29"}, "geometry": {"type": "Point", "coordinates": [5.873969552, 43.51044754]}}, {"type": "Feature", "properties": {"operateur": "Free", "departement": null, "code_postal": null, "code_insee": "83560", "commune": "La Verdi\u00c3\u00a8re", "2Gvoix": "NE", "3Gvoix": "HS", "4Gvoix": null, "3Gdata": "HS", "4Gdata": "HS", "5Gdata": "HS", "voix": "HS", "data": "HS", "propre": null, "detail": null, "debut_voix": NaN, "fin_voix": NaN, "debut_data": NaN, "fin_data": NaN, "debut": "2025-07-22 22:09:05", "fin": "2025-07-29"}, "geometry": {"type": "Point", "coordinates": [5.938344, 43.632994]}}, {"type": "Feature", "properties": {"operateur": "Free", "departement": null, "code_postal": null, "code_insee": "83570", "commune": "CARCES", "2Gvoix": "NE", "3Gvoix": "HS", "4Gvoix": null, "3Gdata": "HS", "4Gdata": "HS", "5Gdata": "HS", "voix": "HS", "data": "HS", "propre": null, "detail": null, "debut_voix": NaN, "fin_voix": NaN, "debut_data": NaN, "fin_data": NaN, "debut": "2025-07-22 22:09:21", "fin": "2025-07-29"}, "geometry": {"type": "Point", "coordinates": [6.187923, 43.488893]}}, {"type": "Feature", "properties": {"operateur": "Free", "departement": null, "code_postal": null, "code_insee": "83570", "commune": "CARCES", "2Gvoix": "NE", "3Gvoix": "HS", "4Gvoix": null, "3Gdata": "HS", "4Gdata": "HS", "5Gdata": "NE", "voix": "HS", "data": "HS", "propre": null, "detail": null, "debut_voix": NaN, "fin_voix": NaN, "debut_data": NaN, "fin_data": NaN, "debut": "2025-07-22 22:09:21", "fin": "2025-07-29"}, "geometry": {"type": "Point", "coordinates": [6.158899001943, 43.450974388191]}}, {"type": "Feature", "properties": {"operateur": "Free", "departement": null, "code_postal": null, "code_insee": "83570", "commune": "CORRENS", "2Gvoix": "NE", "3Gvoix": "HS", "4Gvoix": null, "3Gdata": "HS", "4Gdata": "HS", "5Gdata": "HS", "voix": "HS", "data": "HS", "propre": null, "detail": null, "debut_voix": NaN, "fin_voix": NaN, "debut_data": NaN, "fin_data": NaN, "debut": "2025-07-22 22:09:24", "fin": "2025-07-29"}, "geometry": {"type": "Point", "coordinates": [6.083412, 43.508993]}}, {"type": "Feature", "properties": {"operateur": "Free", "departement": null, "code_postal": null, "code_insee": "83570", "commune": "MONTFORT SUR ARGENS", "2Gvoix": "NE", "3Gvoix": "HS", "4Gvoix": null, "3Gdata": "HS", "4Gdata": "HS", "5Gdata": "HS", "voix": "HS", "data": "HS", "propre": null, "detail": null, "debut_voix": NaN, "fin_voix": NaN, "debut_data": NaN, "fin_data": NaN, "debut": "2025-07-22 22:09:09", "fin": "2025-07-29"}, "geometry": {"type": "Point", "coordinates": [6.1282, 43.467911]}}, {"type": "Feature", "properties": {"operateur": "Free", "departement": null, "code_postal": null, "code_insee": "83670", "commune": "BARJOLS", "2Gvoix": "NE", "3Gvoix": "HS", "4Gvoix": null, "3Gdata": "HS", "4Gdata": "HS", "5Gdata": "HS", "voix": "HS", "data": "HS", "propre": null, "detail": null, "debut_voix": NaN, "fin_voix": NaN, "debut_data": NaN, "fin_data": NaN, "debut": "2025-07-22 22:09:21", "fin": "2025-07-29"}, "geometry": {"type": "Point", "coordinates": [6.01333993, 43.55555009]}}, {"type": "Feature", "properties": {"operateur": "Free", "departement": null, "code_postal": null, "code_insee": "83670", "commune": "CHATEAUVERT", "2Gvoix": "NE", "3Gvoix": "HS", "4Gvoix": null, "3Gdata": "HS", "4Gdata": "HS", "5Gdata": "NE", "voix": "HS", "data": "HS", "propre": null, "detail": null, "debut_voix": NaN, "fin_voix": NaN, "debut_data": NaN, "fin_data": NaN, "debut": "2025-07-22 22:09:18", "fin": "2025-07-29"}, "geometry": {"type": "Point", "coordinates": [6.01342554, 43.51559356]}}, {"type": "Feature", "properties": {"operateur": "Free", "departement": null, "code_postal": null, "code_insee": "83670", "commune": "TAVERNES", "2Gvoix": "NE", "3Gvoix": "HS", "4Gvoix": null, "3Gdata": "HS", "4Gdata": "HS", "5Gdata": "HS", "voix": "HS", "data": "HS", "propre": null, "detail": null, "debut_voix": NaN, "fin_voix": NaN, "debut_data": NaN, "fin_data": NaN, "debut": "2025-07-22 22:09:09", "fin": "2025-07-29"}, "geometry": {"type": "Point", "coordinates": [6.011270565, 43.58881553]}}, {"type": "Feature", "properties": {"operateur": "Free", "departement": null, "code_postal": null, "code_insee": "83670", "commune": "VARAGES", "2Gvoix": "NE", "3Gvoix": "HS", "4Gvoix": null, "3Gdata": "HS", "4Gdata": "HS", "5Gdata": "HS", "voix": "HS", "data": "HS", "propre": null, "detail": null, "debut_voix": NaN, "fin_voix": NaN, "debut_data": NaN, "fin_data": NaN, "debut": "2025-07-22 22:09:05", "fin": "2025-07-29"}, "geometry": {"type": "Point", "coordinates": [5.9668, 43.59628]}}, {"type": "Feature", "properties": {"operateur": "Free", "departement": null, "code_postal": null, "code_insee": "83860", "commune": "NANS LES PINS", "2Gvoix": "NE", "3Gvoix": "HS", "4Gvoix": null, "3Gdata": "HS", "4Gdata": "HS", "5Gdata": "HS", "voix": "HS", "data": "HS", "propre": null, "detail": null, "debut_voix": NaN, "fin_voix": NaN, "debut_data": NaN, "fin_data": NaN, "debut": "2025-07-22 22:09:11", "fin": "2025-07-29"}, "geometry": {"type": "Point", "coordinates": [5.80083, 43.35528]}}, {"type": "Feature", "properties": {"operateur": "Free", "departement": null, "code_postal": null, "code_insee": "83910", "commune": "POURRIERES", "2Gvoix": "NE", "3Gvoix": "HS", "4Gvoix": null, "3Gdata": "HS", "4Gdata": "HS", "5Gdata": "HS", "voix": "HS", "data": "HS", "propre": null, "detail": null, "debut_voix": NaN, "fin_voix": NaN, "debut_data": NaN, "fin_data": NaN, "debut": "2025-07-22 22:09:14", "fin": "2025-07-29"}, "geometry": {"type": "Point", "coordinates": [5.724599, 43.478669]}}, {"type": "Feature", "properties": {"operateur": "Free", "departement": null, "code_postal": null, "code_insee": "83910", "commune": "POURRIERES", "2Gvoix": "NE", "3Gvoix": "HS", "4Gvoix": null, "3Gdata": "HS", "4Gdata": "HS", "5Gdata": "HS", "voix": "HS", "data": "HS", "propre": null, "detail": null, "debut_voix": NaN, "fin_voix": NaN, "debut_data": NaN, "fin_data": NaN, "debut": "2025-07-22 22:09:14", "fin": "2025-07-29"}, "geometry": {"type": "Point", "coordinates": [5.732699, 43.505501]}}, {"type": "Feature", "properties": {"operateur": "Free", "departement": null, "code_postal": null, "code_insee": "83910", "commune": "POURRIERES", "2Gvoix": "NE", "3Gvoix": "HS", "4Gvoix": null, "3Gdata": "HS", "4Gdata": "HS", "5Gdata": "HS", "voix": "HS", "data": "HS", "propre": null, "detail": null, "debut_voix": NaN, "fin_voix": NaN, "debut_data": NaN, "fin_data": NaN, "debut": "2025-07-22 22:09:14", "fin": "2025-07-29"}, "geometry": {"type": "Point", "coordinates": [5.745384, 43.483037]}}, {"type": "Feature", "properties": {"operateur": "Free", "departement": null, "code_postal": null, "code_insee": "85290", "commune": " MORTAGNE-SUR-SEVRE", "2Gvoix": "NE", "3Gvoix": "HS", "4Gvoix": null, "3Gdata": "HS", "4Gdata": "HS", "5Gdata": "NE", "voix": "HS", "data": "HS", "propre": null, "detail": null, "debut_voix": NaN, "fin_voix": NaN, "debut_data": NaN, "fin_data": NaN, "debut": "2025-07-22 12:58:45", "fin": "2025-07-29"}, "geometry": {"type": "Point", "coordinates": [-0.949581, 47.000323]}}, {"type": "Feature", "properties": {"operateur": "Free", "departement": null, "code_postal": null, "code_insee": "87000", "commune": "LIMOGES", "2Gvoix": "NE", "3Gvoix": "HS", "4Gvoix": null, "3Gdata": "HS", "4Gdata": "HS", "5Gdata": "NE", "voix": "HS", "data": "HS", "propre": null, "detail": null, "debut_voix": NaN, "fin_voix": NaN, "debut_data": NaN, "fin_data": NaN, "debut": "2025-07-23 00:28:31", "fin": "2025-07-30"}, "geometry": {"type": "Point", "coordinates": [1.258224, 45.807772]}}, {"type": "Feature", "properties": {"operateur": "Free", "departement": null, "code_postal": null, "code_insee": "87000", "commune": "LIMOGES", "2Gvoix": "NE", "3Gvoix": "HS", "4Gvoix": null, "3Gdata": "HS", "4Gdata": "HS", "5Gdata": "NE", "voix": "HS", "data": "HS", "propre": null, "detail": null, "debut_voix": NaN, "fin_voix": NaN, "debut_data": NaN, "fin_data": NaN, "debut": "2025-07-23 00:28:25", "fin": "2025-07-30"}, "geometry": {"type": "Point", "coordinates": [1.231666667, 45.82888889]}}, {"type": "Feature", "properties": {"operateur": "Free", "departement": null, "code_postal": null, "code_insee": "87000", "commune": "LIMOGES", "2Gvoix": "NE", "3Gvoix": "HS", "4Gvoix": null, "3Gdata": "HS", "4Gdata": "HS", "5Gdata": "HS", "voix": "HS", "data": "HS", "propre": null, "detail": null, "debut_voix": NaN, "fin_voix": NaN, "debut_data": NaN, "fin_data": NaN, "debut": "2025-07-23 00:28:25", "fin": "2025-07-30"}, "geometry": {"type": "Point", "coordinates": [1.233404, 45.845187]}}, {"type": "Feature", "properties": {"operateur": "Free", "departement": null, "code_postal": null, "code_insee": "87000", "commune": "LIMOGES", "2Gvoix": "NE", "3Gvoix": "HS", "4Gvoix": null, "3Gdata": "HS", "4Gdata": "HS", "5Gdata": "HS", "voix": "HS", "data": "HS", "propre": null, "detail": null, "debut_voix": NaN, "fin_voix": NaN, "debut_data": NaN, "fin_data": NaN, "debut": "2025-07-23 00:28:25", "fin": "2025-07-30"}, "geometry": {"type": "Point", "coordinates": [1.234897, 45.812533]}}, {"type": "Feature", "properties": {"operateur": "Free", "departement": null, "code_postal": null, "code_insee": "87000", "commune": "LIMOGES", "2Gvoix": "NE", "3Gvoix": "HS", "4Gvoix": null, "3Gdata": "HS", "4Gdata": "HS", "5Gdata": "NE", "voix": "HS", "data": "HS", "propre": null, "detail": null, "debut_voix": NaN, "fin_voix": NaN, "debut_data": NaN, "fin_data": NaN, "debut": "2025-07-23 00:28:24", "fin": "2025-07-30"}, "geometry": {"type": "Point", "coordinates": [1.265101, 45.831797]}}, {"type": "Feature", "properties": {"operateur": "Free", "departement": null, "code_postal": null, "code_insee": "87000", "commune": "LIMOGES", "2Gvoix": "NE", "3Gvoix": "HS", "4Gvoix": null, "3Gdata": "HS", "4Gdata": "HS", "5Gdata": "HS", "voix": "HS", "data": "HS", "propre": null, "detail": null, "debut_voix": NaN, "fin_voix": NaN, "debut_data": NaN, "fin_data": NaN, "debut": "2025-07-23 00:28:25", "fin": "2025-07-30"}, "geometry": {"type": "Point", "coordinates": [1.255778, 45.819105]}}, {"type": "Feature", "properties": {"operateur": "Free", "departement": null, "code_postal": null, "code_insee": "87000", "commune": "LIMOGES", "2Gvoix": "NE", "3Gvoix": "HS", "4Gvoix": null, "3Gdata": "HS", "4Gdata": "HS", "5Gdata": "HS", "voix": "HS", "data": "HS", "propre": null, "detail": null, "debut_voix": NaN, "fin_voix": NaN, "debut_data": NaN, "fin_data": NaN, "debut": "2025-07-23 00:28:24", "fin": "2025-07-30"}, "geometry": {"type": "Point", "coordinates": [1.25722815, 45.839591796]}}, {"type": "Feature", "properties": {"operateur": "Free", "departement": null, "code_postal": null, "code_insee": "87000", "commune": "LIMOGES", "2Gvoix": "NE", "3Gvoix": "HS", "4Gvoix": null, "3Gdata": "HS", "4Gdata": "HS", "5Gdata": "HS", "voix": "HS", "data": "HS", "propre": null, "detail": null, "debut_voix": NaN, "fin_voix": NaN, "debut_data": NaN, "fin_data": NaN, "debut": "2025-07-23 00:28:25", "fin": "2025-07-30"}, "geometry": {"type": "Point", "coordinates": [1.2571466, 45.8282031]}}, {"type": "Feature", "properties": {"operateur": "Free", "departement": null, "code_postal": null, "code_insee": "87000", "commune": "LIMOGES", "2Gvoix": "NE", "3Gvoix": "HS", "4Gvoix": null, "3Gdata": "HS", "4Gdata": "HS", "5Gdata": "HS", "voix": "HS", "data": "HS", "propre": null, "detail": null, "debut_voix": NaN, "fin_voix": NaN, "debut_data": NaN, "fin_data": NaN, "debut": "2025-07-23 00:28:25", "fin": "2025-07-30"}, "geometry": {"type": "Point", "coordinates": [1.2202682, 45.8233527]}}, {"type": "Feature", "properties": {"operateur": "Free", "departement": null, "code_postal": null, "code_insee": "87000", "commune": "LIMOGES", "2Gvoix": "NE", "3Gvoix": "HS", "4Gvoix": null, "3Gdata": "HS", "4Gdata": "HS", "5Gdata": "NE", "voix": "HS", "data": "HS", "propre": null, "detail": null, "debut_voix": NaN, "fin_voix": NaN, "debut_data": NaN, "fin_data": NaN, "debut": "2025-07-23 00:28:25", "fin": "2025-07-30"}, "geometry": {"type": "Point", "coordinates": [1.24364881, 45.84150407]}}, {"type": "Feature", "properties": {"operateur": "Free", "departement": null, "code_postal": null, "code_insee": "87000", "commune": "LIMOGES", "2Gvoix": "NE", "3Gvoix": "HS", "4Gvoix": null, "3Gdata": "HS", "4Gdata": "HS", "5Gdata": "HS", "voix": "HS", "data": "HS", "propre": null, "detail": null, "debut_voix": NaN, "fin_voix": NaN, "debut_data": NaN, "fin_data": NaN, "debut": "2025-07-23 00:28:25", "fin": "2025-07-30"}, "geometry": {"type": "Point", "coordinates": [1.2476726, 45.85022587]}}, {"type": "Feature", "properties": {"operateur": "Free", "departement": null, "code_postal": null, "code_insee": "87000", "commune": "LIMOGES", "2Gvoix": "NE", "3Gvoix": "HS", "4Gvoix": null, "3Gdata": "HS", "4Gdata": "HS", "5Gdata": "NE", "voix": "HS", "data": "HS", "propre": null, "detail": null, "debut_voix": NaN, "fin_voix": NaN, "debut_data": NaN, "fin_data": NaN, "debut": "2025-07-23 00:28:25", "fin": "2025-07-30"}, "geometry": {"type": "Point", "coordinates": [1.25842031, 45.84974463]}}, {"type": "Feature", "properties": {"operateur": "Free", "departement": null, "code_postal": null, "code_insee": "87000", "commune": "LIMOGES", "2Gvoix": "NE", "3Gvoix": "HS", "4Gvoix": null, "3Gdata": "HS", "4Gdata": "HS", "5Gdata": "NE", "voix": "HS", "data": "HS", "propre": null, "detail": null, "debut_voix": NaN, "fin_voix": NaN, "debut_data": NaN, "fin_data": NaN, "debut": "2025-07-23 00:28:25", "fin": "2025-07-30"}, "geometry": {"type": "Point", "coordinates": [1.242744573, 45.83519689]}}, {"type": "Feature", "properties": {"operateur": "Free", "departement": null, "code_postal": null, "code_insee": "87000", "commune": "LIMOGES", "2Gvoix": "NE", "3Gvoix": "HS", "4Gvoix": null, "3Gdata": "HS", "4Gdata": "HS", "5Gdata": "NE", "voix": "HS", "data": "HS", "propre": null, "detail": null, "debut_voix": NaN, "fin_voix": NaN, "debut_data": NaN, "fin_data": NaN, "debut": "2025-07-23 00:28:21", "fin": "2025-07-30"}, "geometry": {"type": "Point", "coordinates": [1.25343702, 45.83476061]}}, {"type": "Feature", "properties": {"operateur": "Free", "departement": null, "code_postal": null, "code_insee": "87000", "commune": "LIMOGES", "2Gvoix": "NE", "3Gvoix": "HS", "4Gvoix": null, "3Gdata": "HS", "4Gdata": "HS", "5Gdata": "HS", "voix": "HS", "data": "HS", "propre": null, "detail": null, "debut_voix": NaN, "fin_voix": NaN, "debut_data": NaN, "fin_data": NaN, "debut": "2025-07-23 00:28:21", "fin": "2025-07-30"}, "geometry": {"type": "Point", "coordinates": [1.277639, 45.8113]}}, {"type": "Feature", "properties": {"operateur": "Free", "departement": null, "code_postal": null, "code_insee": "87000", "commune": "LIMOGES", "2Gvoix": "NE", "3Gvoix": "HS", "4Gvoix": null, "3Gdata": "HS", "4Gdata": "HS", "5Gdata": "NE", "voix": "HS", "data": "HS", "propre": null, "detail": null, "debut_voix": NaN, "fin_voix": NaN, "debut_data": NaN, "fin_data": NaN, "debut": "2025-07-23 00:28:22", "fin": "2025-07-30"}, "geometry": {"type": "Point", "coordinates": [1.235876, 45.81957]}}, {"type": "Feature", "properties": {"operateur": "Free", "departement": null, "code_postal": null, "code_insee": "87000", "commune": "LIMOGES", "2Gvoix": "NE", "3Gvoix": "HS", "4Gvoix": null, "3Gdata": "HS", "4Gdata": "HS", "5Gdata": "NE", "voix": "HS", "data": "HS", "propre": null, "detail": null, "debut_voix": NaN, "fin_voix": NaN, "debut_data": NaN, "fin_data": NaN, "debut": "2025-07-23 00:28:21", "fin": "2025-07-30"}, "geometry": {"type": "Point", "coordinates": [1.295048, 45.863193]}}, {"type": "Feature", "properties": {"operateur": "Free", "departement": null, "code_postal": null, "code_insee": "87000", "commune": "LIMOGES", "2Gvoix": "NE", "3Gvoix": "HS", "4Gvoix": null, "3Gdata": "HS", "4Gdata": "HS", "5Gdata": "HS", "voix": "HS", "data": "HS", "propre": null, "detail": null, "debut_voix": NaN, "fin_voix": NaN, "debut_data": NaN, "fin_data": NaN, "debut": "2025-07-23 00:28:22", "fin": "2025-07-30"}, "geometry": {"type": "Point", "coordinates": [1.295856, 45.883749]}}, {"type": "Feature", "properties": {"operateur": "Free", "departement": null, "code_postal": null, "code_insee": "87000", "commune": "LIMOGES", "2Gvoix": "NE", "3Gvoix": "HS", "4Gvoix": null, "3Gdata": "HS", "4Gdata": "HS", "5Gdata": "HS", "voix": "HS", "data": "HS", "propre": null, "detail": null, "debut_voix": NaN, "fin_voix": NaN, "debut_data": NaN, "fin_data": NaN, "debut": "2025-07-23 00:28:22", "fin": "2025-07-30"}, "geometry": {"type": "Point", "coordinates": [1.228467, 45.834458]}}, {"type": "Feature", "properties": {"operateur": "Free", "departement": null, "code_postal": null, "code_insee": "87000", "commune": "LIMOGES", "2Gvoix": "NE", "3Gvoix": "HS", "4Gvoix": null, "3Gdata": "HS", "4Gdata": "HS", "5Gdata": "NE", "voix": "HS", "data": "HS", "propre": null, "detail": null, "debut_voix": NaN, "fin_voix": NaN, "debut_data": NaN, "fin_data": NaN, "debut": "2025-07-23 00:28:18", "fin": "2025-07-30"}, "geometry": {"type": "Point", "coordinates": [1.274745, 45.853711]}}, {"type": "Feature", "properties": {"operateur": "Free", "departement": null, "code_postal": null, "code_insee": "87000", "commune": "LIMOGES", "2Gvoix": "NE", "3Gvoix": "HS", "4Gvoix": null, "3Gdata": "HS", "4Gdata": "HS", "5Gdata": "HS", "voix": "HS", "data": "HS", "propre": null, "detail": null, "debut_voix": NaN, "fin_voix": NaN, "debut_data": NaN, "fin_data": NaN, "debut": "2025-07-23 00:28:18", "fin": "2025-07-30"}, "geometry": {"type": "Point", "coordinates": [1.261696, 45.826341]}}, {"type": "Feature", "properties": {"operateur": "Free", "departement": null, "code_postal": null, "code_insee": "87015", "commune": "LIMOGES", "2Gvoix": "NE", "3Gvoix": "HS", "4Gvoix": null, "3Gdata": "HS", "4Gdata": "HS", "5Gdata": "NE", "voix": "HS", "data": "HS", "propre": null, "detail": null, "debut_voix": NaN, "fin_voix": NaN, "debut_data": NaN, "fin_data": NaN, "debut": "2025-07-23 00:28:21", "fin": "2025-07-30"}, "geometry": {"type": "Point", "coordinates": [1.272534, 45.819015]}}, {"type": "Feature", "properties": {"operateur": "Free", "departement": null, "code_postal": null, "code_insee": "87100", "commune": "LIMOGES", "2Gvoix": "NE", "3Gvoix": "HS", "4Gvoix": null, "3Gdata": "HS", "4Gdata": "NE", "5Gdata": "NE", "voix": "HS", "data": "HS", "propre": null, "detail": null, "debut_voix": NaN, "fin_voix": NaN, "debut_data": NaN, "fin_data": NaN, "debut": "2025-07-23 00:28:25", "fin": "2025-07-30"}, "geometry": {"type": "Point", "coordinates": [1.270389, 45.839747]}}, {"type": "Feature", "properties": {"operateur": "Free", "departement": null, "code_postal": null, "code_insee": "87110", "commune": "BOSMIE-L'AIGUILLE", "2Gvoix": "NE", "3Gvoix": "HS", "4Gvoix": null, "3Gdata": "HS", "4Gdata": "HS", "5Gdata": "NE", "voix": "HS", "data": "HS", "propre": null, "detail": null, "debut_voix": NaN, "fin_voix": NaN, "debut_data": NaN, "fin_data": NaN, "debut": "2025-07-23 00:28:28", "fin": "2025-07-30"}, "geometry": {"type": "Point", "coordinates": [1.19360658, 45.77916503]}}, {"type": "Feature", "properties": {"operateur": "Free", "departement": null, "code_postal": null, "code_insee": "87110", "commune": "BOSMIE L'AIGUILLE", "2Gvoix": "NE", "3Gvoix": "HS", "4Gvoix": null, "3Gdata": "HS", "4Gdata": "HS", "5Gdata": "HS", "voix": "HS", "data": "HS", "propre": null, "detail": null, "debut_voix": NaN, "fin_voix": NaN, "debut_data": NaN, "fin_data": NaN, "debut": "2025-07-23 00:28:31", "fin": "2025-07-30"}, "geometry": {"type": "Point", "coordinates": [1.21733, 45.759487]}}, {"type": "Feature", "properties": {"operateur": "Free", "departement": null, "code_postal": null, "code_insee": "87110", "commune": "LE VIGEN", "2Gvoix": "NE", "3Gvoix": "HS", "4Gvoix": null, "3Gdata": "HS", "4Gdata": "HS", "5Gdata": "HS", "voix": "HS", "data": "HS", "propre": null, "detail": null, "debut_voix": NaN, "fin_voix": NaN, "debut_data": NaN, "fin_data": NaN, "debut": "2025-07-23 00:28:18", "fin": "2025-07-30"}, "geometry": {"type": "Point", "coordinates": [1.313047, 45.780192]}}, {"type": "Feature", "properties": {"operateur": "Free", "departement": null, "code_postal": null, "code_insee": "87110", "commune": "LE VIGEN", "2Gvoix": "NE", "3Gvoix": "HS", "4Gvoix": null, "3Gdata": "HS", "4Gdata": "HS", "5Gdata": "HS", "voix": "HS", "data": "HS", "propre": null, "detail": null, "debut_voix": NaN, "fin_voix": NaN, "debut_data": NaN, "fin_data": NaN, "debut": "2025-07-23 00:28:18", "fin": "2025-07-30"}, "geometry": {"type": "Point", "coordinates": [1.289903, 45.756548]}}, {"type": "Feature", "properties": {"operateur": "Free", "departement": null, "code_postal": null, "code_insee": "87110", "commune": "LE VIGEN", "2Gvoix": "NE", "3Gvoix": "HS", "4Gvoix": null, "3Gdata": "HS", "4Gdata": "HS", "5Gdata": "HS", "voix": "HS", "data": "HS", "propre": null, "detail": null, "debut_voix": NaN, "fin_voix": NaN, "debut_data": NaN, "fin_data": NaN, "debut": "2025-07-23 00:28:19", "fin": "2025-07-30"}, "geometry": {"type": "Point", "coordinates": [1.2544379, 45.7238932]}}, {"type": "Feature", "properties": {"operateur": "Free", "departement": null, "code_postal": null, "code_insee": "87120", "commune": "EYMOUTIERS", "2Gvoix": "NE", "3Gvoix": "HS", "4Gvoix": null, "3Gdata": "HS", "4Gdata": "HS", "5Gdata": "HS", "voix": "HS", "data": "HS", "propre": null, "detail": null, "debut_voix": NaN, "fin_voix": NaN, "debut_data": NaN, "fin_data": NaN, "debut": "2025-07-23 00:28:28", "fin": "2025-07-30"}, "geometry": {"type": "Point", "coordinates": [1.7525, 45.73221944]}}, {"type": "Feature", "properties": {"operateur": "Free", "departement": null, "code_postal": null, "code_insee": "87120", "commune": "EYMOUTIERS", "2Gvoix": "NE", "3Gvoix": "HS", "4Gvoix": null, "3Gdata": "HS", "4Gdata": "HS", "5Gdata": "HS", "voix": "HS", "data": "HS", "propre": null, "detail": null, "debut_voix": NaN, "fin_voix": NaN, "debut_data": NaN, "fin_data": NaN, "debut": "2025-07-23 00:28:21", "fin": "2025-07-30"}, "geometry": {"type": "Point", "coordinates": [1.69972, 45.73333]}}, {"type": "Feature", "properties": {"operateur": "Free", "departement": null, "code_postal": null, "code_insee": "87120", "commune": "NEDDE", "2Gvoix": "NE", "3Gvoix": "HS", "4Gvoix": null, "3Gdata": "HS", "4Gdata": "HS", "5Gdata": "HS", "voix": "HS", "data": "HS", "propre": null, "detail": null, "debut_voix": NaN, "fin_voix": NaN, "debut_data": NaN, "fin_data": NaN, "debut": "2025-07-23 00:28:18", "fin": "2025-07-30"}, "geometry": {"type": "Point", "coordinates": [1.83667, 45.71806]}}, {"type": "Feature", "properties": {"operateur": "Free", "departement": null, "code_postal": null, "code_insee": "87130", "commune": "CHATEAUNEUF-LA-FORET", "2Gvoix": "NE", "3Gvoix": "HS", "4Gvoix": null, "3Gdata": "HS", "4Gdata": "HS", "5Gdata": "HS", "voix": "HS", "data": "HS", "propre": null, "detail": null, "debut_voix": NaN, "fin_voix": NaN, "debut_data": NaN, "fin_data": NaN, "debut": "2025-07-23 00:28:31", "fin": "2025-07-30"}, "geometry": {"type": "Point", "coordinates": [1.59332403, 45.71471577]}}, {"type": "Feature", "properties": {"operateur": "Free", "departement": null, "code_postal": null, "code_insee": "87130", "commune": "LINARDS", "2Gvoix": "NE", "3Gvoix": "HS", "4Gvoix": null, "3Gdata": "HS", "4Gdata": "HS", "5Gdata": "HS", "voix": "HS", "data": "HS", "propre": null, "detail": null, "debut_voix": NaN, "fin_voix": NaN, "debut_data": NaN, "fin_data": NaN, "debut": "2025-07-23 00:28:18", "fin": "2025-07-30"}, "geometry": {"type": "Point", "coordinates": [1.531788164, 45.70740466]}}, {"type": "Feature", "properties": {"operateur": "Free", "departement": null, "code_postal": null, "code_insee": "87140", "commune": "COMPREIGNAC", "2Gvoix": "NE", "3Gvoix": "HS", "4Gvoix": null, "3Gdata": "HS", "4Gdata": "HS", "5Gdata": "HS", "voix": "HS", "data": "HS", "propre": null, "detail": null, "debut_voix": NaN, "fin_voix": NaN, "debut_data": NaN, "fin_data": NaN, "debut": "2025-07-23 00:28:27", "fin": "2025-07-30"}, "geometry": {"type": "Point", "coordinates": [1.29328074, 46.00384355]}}, {"type": "Feature", "properties": {"operateur": "Free", "departement": null, "code_postal": null, "code_insee": "87150", "commune": "CUSSAC", "2Gvoix": "NE", "3Gvoix": "HS", "4Gvoix": null, "3Gdata": "HS", "4Gdata": "HS", "5Gdata": "HS", "voix": "HS", "data": "HS", "propre": null, "detail": null, "debut_voix": NaN, "fin_voix": NaN, "debut_data": NaN, "fin_data": NaN, "debut": "2025-07-23 00:28:29", "fin": "2025-07-30"}, "geometry": {"type": "Point", "coordinates": [0.8448034, 45.7068216]}}, {"type": "Feature", "properties": {"operateur": "Free", "departement": null, "code_postal": null, "code_insee": "87150", "commune": "ORADOUR-SUR-VAYRES", "2Gvoix": "NE", "3Gvoix": "HS", "4Gvoix": null, "3Gdata": "HS", "4Gdata": "HS", "5Gdata": "HS", "voix": "HS", "data": "HS", "propre": null, "detail": null, "debut_voix": NaN, "fin_voix": NaN, "debut_data": NaN, "fin_data": NaN, "debut": "2025-07-23 00:28:18", "fin": "2025-07-30"}, "geometry": {"type": "Point", "coordinates": [0.872625099, 45.73020388]}}, {"type": "Feature", "properties": {"operateur": "Free", "departement": null, "code_postal": null, "code_insee": "87160", "commune": "SAINT SULPICE LES FEUILLES", "2Gvoix": "NE", "3Gvoix": "HS", "4Gvoix": null, "3Gdata": "HS", "4Gdata": "HS", "5Gdata": "HS", "voix": "HS", "data": "HS", "propre": null, "detail": null, "debut_voix": NaN, "fin_voix": NaN, "debut_data": NaN, "fin_data": NaN, "debut": "2025-07-23 00:28:22", "fin": "2025-07-30"}, "geometry": {"type": "Point", "coordinates": [1.37153, 46.31701]}}, {"type": "Feature", "properties": {"operateur": "Free", "departement": null, "code_postal": null, "code_insee": "87170", "commune": "ISLE", "2Gvoix": "NE", "3Gvoix": "HS", "4Gvoix": null, "3Gdata": "HS", "4Gdata": "HS", "5Gdata": "NE", "voix": "HS", "data": "HS", "propre": null, "detail": null, "debut_voix": NaN, "fin_voix": NaN, "debut_data": NaN, "fin_data": NaN, "debut": "2025-07-23 00:28:22", "fin": "2025-07-30"}, "geometry": {"type": "Point", "coordinates": [1.21173582, 45.80853261]}}, {"type": "Feature", "properties": {"operateur": "Free", "departement": null, "code_postal": null, "code_insee": "87170", "commune": "ISLE", "2Gvoix": "NE", "3Gvoix": "HS", "4Gvoix": null, "3Gdata": "HS", "4Gdata": "HS", "5Gdata": "HS", "voix": "HS", "data": "HS", "propre": null, "detail": null, "debut_voix": NaN, "fin_voix": NaN, "debut_data": NaN, "fin_data": NaN, "debut": "2025-07-23 00:28:18", "fin": "2025-07-30"}, "geometry": {"type": "Point", "coordinates": [1.16278369, 45.81526984]}}, {"type": "Feature", "properties": {"operateur": "Free", "departement": null, "code_postal": null, "code_insee": "87170", "commune": "ISLE", "2Gvoix": "NE", "3Gvoix": "HS", "4Gvoix": null, "3Gdata": "HS", "4Gdata": "HS", "5Gdata": "NE", "voix": "HS", "data": "HS", "propre": null, "detail": null, "debut_voix": NaN, "fin_voix": NaN, "debut_data": NaN, "fin_data": NaN, "debut": "2025-07-23 00:28:18", "fin": "2025-07-30"}, "geometry": {"type": "Point", "coordinates": [1.22715982, 45.80763724]}}, {"type": "Feature", "properties": {"operateur": "Free", "departement": null, "code_postal": null, "code_insee": "87170", "commune": "ISLE", "2Gvoix": "NE", "3Gvoix": "HS", "4Gvoix": null, "3Gdata": "HS", "4Gdata": "HS", "5Gdata": "HS", "voix": "HS", "data": "HS", "propre": null, "detail": null, "debut_voix": NaN, "fin_voix": NaN, "debut_data": NaN, "fin_data": NaN, "debut": "2025-07-23 00:28:19", "fin": "2025-07-30"}, "geometry": {"type": "Point", "coordinates": [1.212674, 45.817423]}}, {"type": "Feature", "properties": {"operateur": "Free", "departement": null, "code_postal": null, "code_insee": "87190", "commune": "DOMPIERRE-LES-EGLISES", "2Gvoix": "NE", "3Gvoix": "HS", "4Gvoix": null, "3Gdata": "HS", "4Gdata": "HS", "5Gdata": "HS", "voix": "HS", "data": "HS", "propre": null, "detail": null, "debut_voix": NaN, "fin_voix": NaN, "debut_data": NaN, "fin_data": NaN, "debut": "2025-07-23 00:28:28", "fin": "2025-07-30"}, "geometry": {"type": "Point", "coordinates": [1.22389005, 46.18612001]}}, {"type": "Feature", "properties": {"operateur": "Free", "departement": null, "code_postal": null, "code_insee": "87190", "commune": "DOMPIERRE-LES-EGLISES", "2Gvoix": "NE", "3Gvoix": "HS", "4Gvoix": null, "3Gdata": "HS", "4Gdata": "HS", "5Gdata": "NE", "voix": "HS", "data": "HS", "propre": null, "detail": null, "debut_voix": NaN, "fin_voix": NaN, "debut_data": NaN, "fin_data": NaN, "debut": "2025-07-23 00:28:29", "fin": "2025-07-30"}, "geometry": {"type": "Point", "coordinates": [1.251893836247, 46.220416019908]}}, {"type": "Feature", "properties": {"operateur": "Free", "departement": null, "code_postal": null, "code_insee": "87190", "commune": "MAGNAC LAVAL", "2Gvoix": "NE", "3Gvoix": "HS", "4Gvoix": null, "3Gdata": "HS", "4Gdata": "HS", "5Gdata": "NE", "voix": "HS", "data": "HS", "propre": null, "detail": null, "debut_voix": NaN, "fin_voix": NaN, "debut_data": NaN, "fin_data": NaN, "debut": "2025-07-23 00:28:18", "fin": "2025-07-30"}, "geometry": {"type": "Point", "coordinates": [1.172505556, 46.22111389]}}, {"type": "Feature", "properties": {"operateur": "Free", "departement": null, "code_postal": null, "code_insee": "87200", "commune": "SAINT-JUNIEN", "2Gvoix": "NE", "3Gvoix": "HS", "4Gvoix": null, "3Gdata": "HS", "4Gdata": "HS", "5Gdata": "HS", "voix": "HS", "data": "HS", "propre": null, "detail": null, "debut_voix": NaN, "fin_voix": NaN, "debut_data": NaN, "fin_data": NaN, "debut": "2025-07-23 00:28:17", "fin": "2025-07-30"}, "geometry": {"type": "Point", "coordinates": [0.9175, 45.89666]}}, {"type": "Feature", "properties": {"operateur": "Free", "departement": null, "code_postal": null, "code_insee": "87210", "commune": "LE DORAT", "2Gvoix": "NE", "3Gvoix": "HS", "4Gvoix": null, "3Gdata": "HS", "4Gdata": "HS", "5Gdata": "HS", "voix": "HS", "data": "HS", "propre": null, "detail": null, "debut_voix": NaN, "fin_voix": NaN, "debut_data": NaN, "fin_data": NaN, "debut": "2025-07-23 00:28:28", "fin": "2025-07-30"}, "geometry": {"type": "Point", "coordinates": [1.098091074, 46.21048822]}}, {"type": "Feature", "properties": {"operateur": "Free", "departement": null, "code_postal": null, "code_insee": "87210", "commune": "ORADOUR-SAINT-GENEST", "2Gvoix": "NE", "3Gvoix": "HS", "4Gvoix": null, "3Gdata": "HS", "4Gdata": "HS", "5Gdata": "HS", "voix": "HS", "data": "HS", "propre": null, "detail": null, "debut_voix": NaN, "fin_voix": NaN, "debut_data": NaN, "fin_data": NaN, "debut": "2025-07-23 00:28:18", "fin": "2025-07-30"}, "geometry": {"type": "Point", "coordinates": [1.0250702, 46.2261266]}}, {"type": "Feature", "properties": {"operateur": "Free", "departement": null, "code_postal": null, "code_insee": "87220", "commune": "AUREIL", "2Gvoix": "NE", "3Gvoix": "HS", "4Gvoix": null, "3Gdata": "HS", "4Gdata": "HS", "5Gdata": "HS", "voix": "HS", "data": "HS", "propre": null, "detail": null, "debut_voix": NaN, "fin_voix": NaN, "debut_data": NaN, "fin_data": NaN, "debut": "2025-07-23 00:28:29", "fin": "2025-07-30"}, "geometry": {"type": "Point", "coordinates": [1.3822711, 45.8031621]}}, {"type": "Feature", "properties": {"operateur": "Free", "departement": null, "code_postal": null, "code_insee": "87220", "commune": "FEYTIAT", "2Gvoix": "NE", "3Gvoix": "HS", "4Gvoix": null, "3Gdata": "HS", "4Gdata": "HS", "5Gdata": "HS", "voix": "HS", "data": "HS", "propre": null, "detail": null, "debut_voix": NaN, "fin_voix": NaN, "debut_data": NaN, "fin_data": NaN, "debut": "2025-07-23 00:28:21", "fin": "2025-07-30"}, "geometry": {"type": "Point", "coordinates": [1.335932, 45.815]}},